
深圳:北纬N22°32′43.86″, 东经E114°03′10.40″

Last login: Tue Sep  8 02:57:41 2020 from 198.18.248.5
root@imx8mmevk:~# cat /dev/ttymxc2 | grep -e RMC -e GGA -e GSA -e GSV
$GLGSV,3,3,10,83,12,175,,88,02,027,*68
$GNRMC,094449.00,A,2241.52300,N,11417.56819,E,0.075,,241220,,,D*6A    
$GNGGA,094449.00,2241.52300,N,11417.56819,E,2,11,3.52,81.4,M,-1.7,M,,0000*67
$GNGSA,A,3,04,08,09,22,03,16,41,31,,,,,3.99,3.52,1.88*1C
$GNGSA,A,3,69,70,80,,,,,,,,,,3.99,3.52,1.88*1A
$GPGSV,3,1,11,03,12,236,25,04,57,294,38,08,42,203,43,09,22,316,46*7E
$GPGSV,3,2,11,16,52,002,24,22,08,215,41,26,32,039,,27,76,154,*7C
$GPGSV,3,3,11,31,27,098,28,40,20,257,,41,46,238,49*40
$GLGSV,3,1,10,68,08,184,,69,37,228,46,70,27,301,37,78,07,074,*63
$GLGSV,3,2,10,79,33,029,23,80,27,323,38,81,38,064,24,82,43,134,*68
$GLGSV,3,3,10,83,12,175,,88,02,027,*68
$GNRMC,094450.00,A,2241.52301,N,11417.56829,E,0.028,,241220,,,D*68
$GNGGA,094450.00,2241.52301,N,11417.56829,E,2,11,3.52,81.4,M,-1.7,M,,0000*6D
$GNGSA,A,3,04,08,09,22,03,16,41,31,,,,,3.99,3.52,1.88*1C
$GNGSA,A,3,69,70,80,,,,,,,,,,3.99,3.52,1.88*1A
$GPGSV,3,1,11,03,12,236,25,04,57,294,38,08,42,203,43,09,22,316,46*7E
$GPGSV,3,2,11,16,52,002,25,22,08,215,41,26,32,039,,27,76,154,*7D
$GPGSV,3,3,11,31,27,098,30,40,20,257,,41,46,238,49*49
$GLGSV,3,1,10,68,08,184,,69,37,228,46,70,27,301,36,78,07,074,*62
$GLGSV,3,2,10,79,33,029,22,80,27,323,38,81,38,064,25,82,43,134,*68
$GLGSV,3,3,10,83,12,175,,88,02,027,*68
$GNRMC,094451.00,A,2241.52301,N,11417.56841,E,0.019,,241220,,,D*65
$GNGGA,094451.00,2241.52301,N,11417.56841,E,2,11,3.52,81.4,M,-1.7,M,,0000*62
$GNGSA,A,3,04,08,09,22,03,16,41,31,,,,,3.99,3.52,1.88*1C
$GNGSA,A,3,69,70,80,,,,,,,,,,3.99,3.52,1.88*1A
$GPGSV,3,1,11,03,12,236,26,04,57,294,38,08,42,203,43,09,22,316,45*7E
$GPGSV,3,2,11,16,51,003,24,22,08,215,41,26,32,039,,27,76,154,*7E
$GPGSV,3,3,11,31,27,098,30,40,20,257,,41,46,238,49*49
$GLGSV,3,1,10,68,08,184,,69,37,228,46,70,27,301,36,78,07,074,*62
$GLGSV,3,2,10,79,33,029,21,80,27,323,38,81,38,064,26,82,43,134,*68
$GLGSV,3,3,10,83,12,175,,88,02,027,*68
$GNRMC,094452.00,A,2241.52302,N,11417.56852,E,0.062,,241220,,,D*6B
$GNGGA,094452.00,2241.52302,N,11417.56852,E,2,11,3.52,81.4,M,-1.7,M,,0000*60
$GNGSA,A,3,04,08,09,22,03,16,41,31,,,,,3.99,3.52,1.88*1C
$GNGSA,A,3,69,70,80,,,,,,,,,,3.99,3.52,1.88*1A
$GPGSV,3,1,11,03,12,236,28,04,57,294,37,08,42,203,42,09,22,316,44*7F
$GPGSV,3,2,11,16,51,003,25,22,08,215,40,26,32,039,,27,76,154,*7E
$GPGSV,3,3,11,31,27,098,32,40,20,257,,41,46,238,48*4A
$GLGSV,3,1,10,68,08,184,,69,37,228,43,70,27,301,34,78,07,074,*65
$GLGSV,3,2,10,79,33,029,22,80,27,323,36,81,38,064,27,82,43,134,*64
$GLGSV,3,3,10,83,12,175,,88,02,027,*68
$GNRMC,094453.00,A,2241.52304,N,11417.56862,E,0.120,,241220,,,D*68
$GNGGA,094453.00,2241.52304,N,11417.56862,E,2,11,3.52,81.3,M,-1.7,M,,0000*63
$GNGSA,A,3,04,08,09,22,03,16,41,31,,,,,3.99,3.52,1.88*1C
$GNGSA,A,3,69,70,80,,,,,,,,,,3.99,3.52,1.88*1A
$GPGSV,3,1,11,03,12,236,26,04,57,294,38,08,42,203,42,09,22,316,44*7E
$GPGSV,3,2,11,16,51,003,23,22,08,215,40,26,32,039,,27,76,154,*78
$GPGSV,3,3,11,31,27,098,31,40,20,257,,41,46,238,48*49
$GLGSV,3,1,10,68,08,184,,69,37,228,44,70,27,301,35,78,07,074,*63
$GLGSV,3,2,10,79,33,029,21,80,27,323,36,81,38,064,27,82,43,134,*67
$GLGSV,3,3,10,83,12,175,,88,02,027,*68
$GNRMC,094454.00,A,2241.52304,N,11417.56862,E,0.023,,241220,,,D*6D
$GNGGA,094454.00,2241.52304,N,11417.56862,E,2,10,3.52,81.2,M,-1.7,M,,0000*64
$GNGSA,A,3,04,08,09,22,03,41,31,,,,,,3.99,3.52,1.88*1B
$GNGSA,A,3,69,70,80,,,,,,,,,,3.99,3.52,1.88*1A
$GPGSV,3,1,11,03,12,236,23,04,57,294,39,08,42,203,43,09,22,316,46*79
$GPGSV,3,2,11,16,51,003,24,22,08,215,41,26,32,040,23,27,76,154,*71
$GPGSV,3,3,11,31,27,098,30,40,20,257,,41,46,238,50*41
$GLGSV,3,1,10,68,08,184,,69,37,228,46,70,27,301,37,78,07,074,*63
$GLGSV,3,2,10,79,33,029,20,80,27,323,39,81,38,064,25,82,43,134,*6B
$GLGSV,3,3,10,83,12,175,,88,02,027,*68
$GNRMC,094455.00,A,2241.52304,N,11417.56857,E,0.033,,241220,,,D*6B
$GNGGA,094455.00,2241.52304,N,11417.56857,E,2,10,3.52,81.2,M,-1.7,M,,0000*63
$GNGSA,A,3,04,08,09,22,03,41,31,,,,,,3.99,3.52,1.88*1B
$GNGSA,A,3,69,70,80,,,,,,,,,,3.99,3.52,1.88*1A
$GPGSV,3,1,11,03,12,236,24,04,57,294,39,08,42,203,43,09,22,316,45*7D
$GPGSV,3,2,11,16,51,003,23,22,08,215,41,26,32,040,23,27,77,153,*70
$GPGSV,3,3,11,31,27,098,30,40,20,257,,41,46,238,49*49
$GLGSV,3,1,10,68,08,184,,69,37,228,45,70,27,301,36,78,07,074,*61
$GLGSV,3,2,10,79,33,029,22,80,27,323,38,81,38,064,25,82,43,134,*68
$GLGSV,3,3,10,83,12,175,,88,02,027,*68
$GNRMC,094456.00,A,2241.52304,N,11417.56850,E,0.014,,241220,,,D*6A
$GNGGA,094456.00,2241.52304,N,11417.56850,E,2,11,3.52,81.2,M,-1.7,M,,0000*66
$GNGSA,A,3,04,08,09,22,03,16,41,31,,,,,3.98,3.52,1.88*1D
$GNGSA,A,3,69,70,80,,,,,,,,,,3.98,3.52,1.88*1B
$GPGSV,3,1,11,03,12,236,24,04,57,294,39,08,42,203,44,09,22,316,46*79
$GPGSV,3,2,11,16,51,003,23,22,08,215,42,26,32,040,,27,77,153,*72
$GPGSV,3,3,11,31,27,098,31,40,20,257,,41,46,238,49*48
$GLGSV,3,1,10,68,08,184,,69,37,228,45,70,27,301,36,78,07,074,*61
$GNRMC,094457.00,A,2241.52298,N,11417.56802,E,0.032,,241220,,,D*6C
$GNRMC,094458.00,A,2241.52297,N,11417.56796,E,0.014,,241220,,,D*6A
$GNGGA,094458.00,2241.52297,N,11417.56796,E,2,11,3.51,81.5,M,-1.7,M,,0000*62
$GNGSA,A,3,04,08,09,22,03,16,41,31,,,,,3.98,3.51,1.88*1E
$GNGSA,A,3,69,70,80,,,,,,,,,,3.98,3.51,1.88*18
$GPGSV,3,1,11,03,12,236,23,04,57,294,39,08,42,203,43,09,22,316,45*7A
$GPGSV,3,2,11,16,51,003,21,22,08,215,42,26,32,040,25,27,77,153,*77
$GPGSV,3,3,11,31,27,098,32,40,20,257,,41,46,238,50*43
$GLGSV,3,1,10,68,08,184,,69,37,228,45,70,27,301,36,78,07,074,*61
$GLGSV,3,2,10,79,33,029,20,80,27,323,38,81,38,064,22,82,43,134,*6D
$GLGSV,3,3,10,83,12,175,,88,02,027,*68
$GNRMC,094459.00,A,2241.52295,N,11417.56794,E,0.093,,241220,,,D*64
$GNGGA,094459.00,2241.52295,N,11417.56794,E,2,10,3.51,81.4,M,-1.7,M,,0000*63
$GNGSA,A,3,04,08,09,22,03,41,31,,,,,,3.98,3.51,1.88*19
$GNGSA,A,3,69,70,80,,,,,,,,,,3.98,3.51,1.88*18
$GPGSV,3,1,11,03,12,236,22,04,57,294,39,08,42,203,43,09,22,316,45*7B
$GPGSV,3,2,11,16,51,003,,22,08,215,42,26,32,040,24,27,77,153,*75
$GPGSV,3,3,11,31,27,098,32,40,20,257,,41,46,238,50*43
$GLGSV,3,1,10,68,08,184,,69,37,228,45,70,27,301,36,78,07,074,*61
$GLGSV,3,2,10,79,33,029,20,80,27,323,38,81,38,064,20,82,43,134,*6F
$GLGSV,3,3,10,83,12,175,,88,02,027,*68
$GNRMC,094500.00,A,2241.52294,N,11417.56792,E,0.115,,241220,,,D*61
$GNGGA,094500.00,2241.52294,N,11417.56792,E,2,10,3.51,81.4,M,-1.7,M,,0000*69
$GNGSA,A,3,04,08,09,22,03,41,31,,,,,,3.98,3.51,1.88*19
$GNGSA,A,3,69,70,80,,,,,,,,,,3.98,3.51,1.88*18
$GPGSV,3,1,11,03,12,236,22,04,57,294,39,08,42,203,43,09,22,316,45*7B
$GPGSV,3,2,11,16,51,003,,22,08,215,42,26,32,040,23,27,77,153,*72
$GPGSV,3,3,11,31,27,098,32,40,20,257,,41,46,238,49*4B
$GLGSV,3,1,10,68,08,184,,69,37,228,45,70,27,301,37,78,07,074,*60
$GLGSV,3,2,10,79,33,029,20,80,27,323,38,81,38,064,17,82,43,134,*6B
$GLGSV,3,3,10,83,12,175,,88,02,027,*68
$GNRMC,094501.00,A,2241.52291,N,11417.56788,E,0.122,,241220,,,D*6A
$GNGGA,094501.00,2241.52291,N,11417.56788,E,2,10,3.51,81.4,M,-1.7,M,,0000*66
$GNGSA,A,3,04,08,09,22,03,41,31,,,,,,3.98,3.51,1.88*19
$GNGSA,A,3,69,70,80,,,,,,,,,,3.98,3.51,1.88*18
$GPGSV,3,1,11,03,12,236,22,04,57,294,39,08,42,203,43,09,22,316,45*7B
$GPGSV,3,2,11,16,51,003,,22,08,215,42,26,32,040,23,27,77,153,*72
$GPGSV,3,3,11,31,27,098,33,40,20,257,,41,46,238,49*4A
$GLGSV,3,1,10,68,08,184,,69,37,228,45,70,27,301,36,78,07,074,*61
$GLGSV,3,2,10,79,33,029,19,80,27,323,38,81,38,064,16,82,43,134,*60
$GLGSV,3,3,10,83,12,175,,88,02,027,20*6A
$GNRMC,094502.00,A,2241.52288,N,11417.56788,E,0.026,,241220,,,D*64
$GNGGA,094502.00,2241.52288,N,11417.56788,E,2,10,3.51,81.3,M,-1.7,M,,0000*6A
$GNGSA,A,3,04,08,09,22,03,41,31,,,,,,3.98,3.51,1.88*19
$GNGSA,A,3,69,70,80,,,,,,,,,,3.98,3.51,1.88*18
$GPGSV,3,1,11,03,12,236,22,04,57,294,39,08,42,203,43,09,22,316,45*7B
$GPGSV,3,2,11,16,51,003,,22,08,215,42,26,32,040,23,27,77,153,*72
$GPGSV,3,3,11,31,27,098,33,40,20,257,,41,46,238,49*4A
$GLGSV,3,1,10,68,08,184,,69,37,228,45,70,27,301,36,78,07,074,*61
$GLGSV,3,2,10,79,33,029,17,80,27,323,38,81,38,064,16,82,43,134,*6E
$GLGSV,3,3,10,83,12,175,,88,02,027,20*6A
$GNRMC,094503.00,A,2241.52286,N,11417.56788,E,0.004,,241220,,,D*6B
$GNGGA,094503.00,2241.52286,N,11417.56788,E,2,10,3.51,81.3,M,-1.7,M,,0000*65
$GNGSA,A,3,04,08,09,22,03,41,31,,,,,,3.98,3.51,1.88*19
$GNGSA,A,3,69,70,80,,,,,,,,,,3.98,3.51,1.88*18
$GPGSV,3,1,11,03,12,236,22,04,57,294,39,08,42,203,43,09,22,316,45*7B
$GPGSV,3,2,11,16,51,003,,22,08,215,42,26,32,040,23,27,77,153,*72
$GPGSV,3,3,11,31,27,098,33,40,20,257,,41,46,238,49*4A
$GLGSV,3,1,10,68,08,184,,69,37,228,46,70,27,301,36,78,07,074,*62
$GLGSV,3,2,10,79,33,029,16,80,27,323,38,81,38,064,18,82,43,134,*61
$GLGSV,3,3,10,83,12,175,,88,02,027,19*60
$GNRMC,094504.00,A,2241.52284,N,11417.56781,E,0.008,,241220,,,D*6B
$GNGGA,094504.00,2241.52284,N,11417.56781,E,2,10,3.51,81.3,M,-1.7,M,,0000*69
$GNGSA,A,3,04,08,09,22,03,41,31,,,,,,3.98,3.51,1.88*19
$GNGSA,A,3,69,70,80,,,,,,,,,,3.98,3.51,1.88*18
$GPGSV,3,1,11,03,12,236,23,04,57,294,39,08,42,203,43,09,22,316,45*7A
$GPGSV,3,2,11,16,51,003,,22,08,215,42,26,32,040,24,27,77,153,*75
$GPGSV,3,3,11,31,27,098,34,40,20,257,,41,46,238,49*4D
$GLGSV,3,1,10,68,08,184,,69,37,228,45,70,27,301,36,78,07,074,*61
$GLGSV,3,2,10,79,33,029,16,80,27,323,38,81,38,064,21,82,43,134,*6B
$GLGSV,3,3,10,83,12,175,,88,02,027,17*6E
$GNRMC,094505.00,A,2241.52282,N,11417.56776,E,0.053,,241220,,,D*6A
$GNRMC,094506.00,A,2241.52281,N,11417.56771,E,0.014,,241220,,,D*6E
$GNGGA,094506.00,2241.52281,N,11417.56771,E,2,10,3.51,81.2,M,-1.7,M,,0000*60
$GNGSA,A,3,04,08,09,22,03,41,31,,,,,,3.98,3.51,1.87*16
$GNGSA,A,3,69,70,80,,,,,,,,,,3.98,3.51,1.87*17
$GPGSV,3,1,11,03,12,236,25,04,57,294,37,08,42,203,42,09,22,316,43*75
$GPGSV,3,2,11,16,51,003,24,22,08,215,40,26,32,040,25,27,77,153,*70
$GPGSV,3,3,11,31,27,098,32,40,20,257,,41,46,238,48*4A
$GLGSV,3,1,10,68,08,184,,69,37,228,43,70,27,301,34,78,07,074,*65
$GNRMC,094507.00,A,2241.52281,N,11417.56765,E,0.054,,241220,,,D*6E
$GNGGA,094507.00,2241.52281,N,11417.56765,E,2,10,3.51,81.2,M,-1.7,M,,0000*64
$GNGSA,A,3,04,08,09,22,03,41,31,,,,,,3.98,3.51,1.87*16
$GNRMC,094508.00,A,2241.52276,N,11417.56721,E,0.041,,241220,,,D*6D
$GNRMC,094509.00,A,2241.52274,N,11417.56711,E,0.059,,241220,,,D*64
$GNGGA,094509.00,2241.52274,N,11417.56711,E,2,10,2.98,81.3,M,-1.7,M,,0000*66
$GNGSA,A,3,04,08,09,22,03,41,31,,,,,,3.51,2.98,1.86*16
$GNRMC,094510.00,A,2241.52268,N,11417.56672,E,0.045,,241220,,,D*68
$GNGGA,094510.00,2241.52268,N,11417.56672,E,2,10,0.91,81.5,M,-1.7,M,,0000*6A
$GNRMC,094511.00,A,2241.52266,N,11417.56664,E,0.012,,241220,,,D*62
$GNGGA,094511.00,2241.52266,N,11417.56664,E,2,10,2.98,81.5,M,-1.7,M,,0000*69
$GNGSA,A,3,04,08,09,22,03,41,31,,,,,,3.51,2.98,1.86*16
$GNGSA,A,3,69,70,80,,,,,,,,,,3.51,2.98,1.86*17
$GPGSV,3,1,11,03,12,236,24,04,57,294,38,08,42,203,44,09,22,316,43*7D
$GPGSV,3,2,11,16,51,003,,22,08,215,42,26,32,040,,27,77,153,*73
$GPGSV,3,3,11,31,27,098,30,40,20,257,,41,46,238,49*49
$GLGSV,3,1,10,68,08,184,,69,37,228,45,70,27,301,36,78,07,074,*61
$GLGSV,3,2,10,79,33,029,20,80,27,323,38,81,38,064,,82,43,134,*6D
$GLGSV,3,3,10,83,12,175,,88,02,027,21*6B
$GNRMC,094512.00,A,2241.52261,N,11417.56627,E,0.048,,241220,,,D*6E
$GNGGA,094512.00,2241.52261,N,11417.56627,E,2,10,0.91,81.7,M,-1.7,M,,0000*63
$GNGSA,A,3,04,08,09,22,03,41,31,,,,,,1.77,0.91,1.52*12
$GNGSA,A,3,69,70,80,,,,,,,,,,1.77,0.91,1.52*13
$GPGSV,3,1,11,03,12,236,25,04,57,294,38,08,42,203,44,09,22,316,43*7C
$GPGSV,3,2,11,16,51,003,,22,08,215,42,26,32,040,,27,77,153,25*74
$GPGSV,3,3,11,31,27,098,30,40,20,257,,41,46,238,49*49
$GLGSV,3,1,10,68,08,184,,69,37,228,45,70,27,301,36,78,07,074,*61
$GLGSV,3,2,10,79,33,029,20,80,27,323,38,81,38,064,,82,43,134,*6D
$GLGSV,3,3,10,83,12,175,,88,02,027,21*6B
$GNRMC,094513.00,A,2241.52256,N,11417.56581,E,0.089,,241220,,,D*69
$GNGGA,094513.00,2241.52256,N,11417.56581,E,2,10,0.91,81.9,M,-1.7,M,,0000*67
$GNGSA,A,3,04,08,09,22,03,41,31,,,,,,1.77,0.91,1.52*12
$GNGSA,A,3,69,70,80,,,,,,,,,,1.77,0.91,1.52*13
$GPGSV,3,1,11,03,12,236,25,04,57,294,38,08,42,203,44,09,22,316,43*7C
$GPGSV,3,2,11,16,51,003,,22,08,215,42,26,32,040,,27,77,153,24*75
$GPGSV,3,3,11,31,27,098,30,40,20,257,,41,46,238,49*49
$GLGSV,3,1,10,68,08,184,,69,37,228,45,70,27,301,35,78,07,074,*62
$GLGSV,3,2,10,79,33,029,21,80,27,323,38,81,38,064,,82,43,134,*6C
$GLGSV,3,3,10,83,12,175,,88,02,027,21*6B
$GNRMC,094514.00,A,2241.52255,N,11417.56576,E,0.073,,241220,,,D*60
$GNGGA,094514.00,2241.52255,N,11417.56576,E,2,10,2.98,81.9,M,-1.7,M,,0000*60
$GNGSA,A,3,04,08,09,22,03,41,31,,,,,,3.51,2.98,1.86*16
$GNGSA,A,3,69,70,80,,,,,,,,,,3.51,2.98,1.86*17
$GPGSV,3,1,11,03,12,236,25,04,57,294,37,08,42,203,44,09,22,316,43*73
$GPGSV,3,2,11,16,51,003,,22,08,215,42,26,32,040,,27,77,153,23*72
$GPGSV,3,3,11,31,27,098,30,40,20,257,,41,46,238,49*49
$GLGSV,3,1,10,68,08,184,,69,37,228,45,70,27,301,36,78,07,074,*61
$GLGSV,3,2,10,79,33,029,21,80,27,323,38,81,38,064,,82,43,134,*6C
$GLGSV,3,3,10,83,12,175,,88,02,027,21*6B
$GNRMC,094515.00,A,2241.52249,N,11417.56536,E,0.097,,241220,,,D*62
$GNGGA,094515.00,2241.52249,N,11417.56536,E,2,10,0.91,82.1,M,-1.7,M,,0000*68
$GNGSA,A,3,04,08,09,22,03,41,31,,,,,,1.77,0.91,1.52*12
$GNGSA,A,3,69,70,80,,,,,,,,,,1.77,0.91,1.52*13
$GPGSV,3,1,11,03,12,236,26,04,57,294,37,08,42,203,44,09,22,316,43*70
$GPGSV,3,2,11,16,51,003,,22,08,215,41,26,32,040,,27,77,153,22*70
$GPGSV,3,3,11,31,27,098,29,40,20,257,,41,46,238,49*41
$GLGSV,3,1,10,68,08,184,,69,37,228,45,70,27,301,35,78,07,074,*62
$GLGSV,3,2,10,79,33,029,20,80,27,323,39,81,38,064,,82,43,134,*6C
$GLGSV,3,3,10,83,12,175,,88,02,027,20*6A
$GNRMC,094516.00,A,2241.52246,N,11417.56522,E,0.122,,241220,,,D*64
$GNGGA,094516.00,2241.52246,N,11417.56522,E,2,10,3.50,82.2,M,-1.7,M,,0000*6C
$GNGSA,A,3,04,08,09,22,03,41,31,,,,,,3.97,3.50,1.87*18
$GNGSA,A,3,69,70,80,,,,,,,,,,3.97,3.50,1.87*19
$GPGSV,3,1,11,03,12,236,27,04,57,294,37,08,42,203,44,09,22,316,43*71
$GPGSV,3,2,11,16,51,003,,22,08,215,41,26,32,040,,27,77,153,20*72
$GPGSV,3,3,11,31,27,098,30,40,20,257,,41,46,238,49*49
$GLGSV,3,1,10,68,08,184,,69,37,228,45,70,27,301,35,78,07,074,*62
$GLGSV,3,2,10,79,33,029,20,80,27,323,39,81,38,064,,82,43,134,*6C
$GLGSV,3,3,10,83,12,175,,88,02,027,21*6B
$GNRMC,094517.00,A,2241.52240,N,11417.56474,E,0.044,,241220,,,D*60
$GNGGA,094517.00,2241.52240,N,11417.56474,E,2,10,0.94,82.5,M,-1.7,M,,0000*65
$GNGSA,A,3,04,08,09,22,03,41,31,,,,,,1.93,0.94,1.69*15
$GNGSA,A,3,69,70,80,,,,,,,,,,1.93,0.94,1.69*14
$GPGSV,3,1,11,03,12,236,27,04,57,294,37,08,42,203,44,09,22,316,42*70
$GPGSV,3,2,11,16,51,003,,22,08,215,41,26,32,040,,27,77,153,18*79
$GPGSV,3,3,11,31,27,098,31,40,20,257,,41,46,238,49*48
$GLGSV,3,1,10,68,08,184,,69,37,228,45,70,27,301,36,78,07,074,*61
$GLGSV,3,2,10,79,33,029,20,80,27,323,39,81,38,064,,82,43,134,*6C
$GLGSV,3,3,10,83,12,175,,88,02,027,21*6B
$GNRMC,094518.00,A,2241.52239,N,11417.56466,E,0.046,,241220,,,D*60
$GNGGA,094518.00,2241.52239,N,11417.56466,E,2,10,3.50,82.5,M,-1.7,M,,0000*6C
$GNGSA,A,3,04,08,09,22,03,41,31,,,,,,3.97,3.50,1.87*18
$GNGSA,A,3,69,70,80,,,,,,,,,,3.97,3.50,1.87*19
$GNRMC,094519.00,A,2241.52238,N,11417.56457,E,0.037,,241220,,,D*64
$GNGGA,094519.00,2241.52238,N,11417.56457,E,2,10,3.50,82.5,M,-1.7,M,,0000*6E
$GNGSA,A,3,04,08,09,22,03,41,31,,,,,,3.97,3.50,1.87*18
$GNGSA,A,3,69,70,80,,,,,,,,,,3.97,3.50,1.87*19
$GNRMC,094520.00,A,2241.52237,N,11417.56457,E,0.007,,241220,,,D*62
$GNGGA,094520.00,2241.52237,N,11417.56457,E,2,10,2.98,82.5,M,-1.7,M,,0000*6E
$GNRMC,094521.00,A,2241.52237,N,11417.56460,E,0.005,,241220,,,D*65
$GNRMC,094522.00,A,2241.52237,N,11417.56453,E,0.053,,241220,,,D*65
$GNRMC,094523.00,A,2241.52236,N,11417.56446,E,0.026,,241220,,,D*63
$GNGGA,094523.00,2241.52236,N,11417.56446,E,2,10,2.98,82.7,M,-1.7,M,,0000*6E
$GNGSA,A,3,04,08,09,22,03,41,31,,,,,,3.51,2.98,1.85*15
$GNGSA,A,3,69,70,80,,,,,,,,,,3.51,2.98,1.85*14
$GPGSV,3,1,11,03,12,236,26,04,57,294,38,08,42,203,44,09,22,316,42*7E
$GPGSV,3,2,11,16,51,003,,22,08,215,42,26,32,040,,27,77,153,19*7B
$GNRMC,094524.00,A,2241.52235,N,11417.56437,E,0.013,,241220,,,D*67
$GNGGA,094524.00,2241.52235,N,11417.56437,E,2,10,2.98,82.8,M,-1.7,M,,0000*63
$GNGSA,A,3,04,08,09,22,03,41,31,,,,,,3.51,2.98,1.85*15
$GNGSA,A,3,69,70,80,,,,,,,,,,3.51,2.98,1.85*14
$GPGSV,3,1,11,03,12,236,26,04,57,294,38,08,42,203,44,09,22,316,42*7E
$GPGSV,3,2,11,16,51,003,,22,08,215,42,26,32,040,,27,77,153,19*7B
$GPGSV,3,3,11,31,27,098,33,40,20,257,,41,46,238,49*4A
$GLGSV,3,1,10,68,07,183,,69,37,227,46,70,27,300,36,78,07,074,*64
$GLGSV,3,2,10,79,33,029,20,80,27,323,38,81,38,064,,82,43,134,*6D
$GLGSV,3,3,10,83,12,175,,88,02,027,20*6A
$GNRMC,094525.00,A,2241.52235,N,11417.56426,E,0.026,,241220,,,D*60
$GNGGA,094525.00,2241.52235,N,11417.56426,E,2,10,3.49,82.9,M,-1.7,M,,0000*6E
$GNGSA,A,3,04,08,09,22,03,41,31,,,,,,3.96,3.49,1.87*11
$GNGSA,A,3,69,70,80,,,,,,,,,,3.96,3.49,1.87*10
$GPGSV,3,1,11,03,12,236,24,04,57,294,37,08,42,203,44,09,22,316,42*73
$GPGSV,3,2,11,16,51,003,,22,08,215,42,26,32,040,,27,77,153,18*7A
$GPGSV,3,3,11,31,27,098,33,40,20,257,,41,46,238,49*4A
$GLGSV,3,1,10,68,07,183,,69,37,227,46,70,27,300,36,78,07,074,*64
$GLGSV,3,2,10,79,33,029,21,80,27,323,37,81,38,064,,82,43,134,*63
$GLGSV,3,3,10,83,12,175,,88,02,027,19*60
$GNRMC,094526.00,A,2241.52231,N,11417.56379,E,0.083,,241220,,,D*65
$GNGGA,094526.00,2241.52231,N,11417.56379,E,2,10,0.95,83.1,M,-1.7,M,,0000*6F
$GNGSA,A,3,04,08,09,22,03,41,31,,,,,,1.93,0.95,1.69*14
$GNGSA,A,3,69,70,80,,,,,,,,,,1.93,0.95,1.69*15
$GPGSV,3,1,11,03,12,236,23,04,57,294,37,08,42,203,44,09,22,316,43*75
$GPGSV,3,2,11,16,51,003,,22,08,215,42,26,32,040,,27,77,153,15*77
$GPGSV,3,3,11,31,27,098,32,40,20,257,,41,46,238,49*4B
$GLGSV,3,1,10,68,07,183,,69,37,227,46,70,27,300,36,78,07,074,*64
$GLGSV,3,2,10,79,33,029,22,80,27,323,37,81,38,064,,82,43,134,*60
$GLGSV,3,3,10,83,12,175,,88,02,027,19*60
$GNRMC,094527.00,A,2241.52232,N,11417.56370,E,0.036,,241220,,,D*60
$GNGGA,094527.00,2241.52232,N,11417.56370,E,2,10,3.49,83.1,M,-1.7,M,,0000*66
$GNGSA,A,3,04,08,09,22,03,41,31,,,,,,3.96,3.49,1.87*11
$GNGSA,A,3,69,70,80,,,,,,,,,,3.96,3.49,1.87*10
$GPGSV,3,1,11,03,12,236,21,04,57,294,37,08,42,203,44,09,22,316,43*77
$GPGSV,3,2,11,16,51,003,,22,08,215,42,26,32,040,,27,77,153,*73
$GPGSV,3,3,11,31,27,098,33,40,20,257,,41,46,238,49*4A
$GLGSV,3,1,10,68,07,183,,69,37,227,46,70,27,300,36,78,07,074,*64
$GLGSV,3,2,10,79,33,029,23,80,27,323,37,81,38,064,,82,43,134,*61
$GLGSV,3,3,10,83,12,175,,88,02,027,20*6A
$GNRMC,094528.00,A,2241.52228,N,11417.56324,E,0.021,,241220,,,D*63
$GNGGA,094528.00,2241.52228,N,11417.56324,E,2,10,0.95,83.4,M,-1.7,M,,0000*64
$GNGSA,A,3,04,08,09,22,03,41,31,,,,,,1.93,0.95,1.69*14
$GNGSA,A,3,69,70,80,,,,,,,,,,1.93,0.95,1.69*15
$GPGSV,3,1,11,03,12,236,20,04,57,294,38,08,42,203,44,09,22,316,43*79
$GPGSV,3,2,11,16,51,003,,22,08,215,42,26,32,040,,27,77,153,*73
$GPGSV,3,3,11,31,27,098,33,40,20,257,,41,46,238,49*4A
$GLGSV,3,1,10,68,07,183,,69,37,227,46,70,27,300,36,78,07,074,*64
$GLGSV,3,2,10,79,33,029,23,80,27,323,37,81,38,064,21,82,43,134,*62
$GLGSV,3,3,10,83,12,175,,88,02,027,20*6A
$GNRMC,094529.00,A,2241.52230,N,11417.56324,E,0.025,,241220,,,D*6F
$GNGGA,094529.00,2241.52230,N,11417.56324,E,2,10,3.49,83.4,M,-1.7,M,,0000*6E
$GNGSA,A,3,04,08,09,22,03,41,31,,,,,,3.96,3.49,1.87*11
$GNGSA,A,3,69,70,80,,,,,,,,,,3.96,3.49,1.87*10
$GPGSV,3,1,11,03,12,236,20,04,57,294,38,08,42,203,44,09,22,316,43*79
$GPGSV,3,2,11,16,51,003,22,22,08,215,42,26,32,040,,27,77,153,*73
$GPGSV,3,3,11,31,27,098,32,40,20,257,,41,46,238,49*4B
$GLGSV,3,1,10,68,07,183,,69,37,227,46,70,27,300,36,78,07,074,*64
$GLGSV,3,2,10,79,33,029,24,80,27,323,37,81,38,064,21,82,43,134,*65
$GLGSV,3,3,10,83,12,175,,88,02,027,20*6A
$GNRMC,094530.00,A,2241.52227,N,11417.56287,E,0.027,,241220,,,D*6B
$GNGGA,094530.00,2241.52227,N,11417.56287,E,2,10,0.95,83.7,M,-1.7,M,,0000*69
$GNGSA,A,3,04,08,09,22,03,41,31,,,,,,1.93,0.95,1.69*14
$GNGSA,A,3,69,70,80,,,,,,,,,,1.93,0.95,1.69*15
$GPGSV,3,1,11,03,12,236,20,04,57,294,38,08,42,203,44,09,22,316,43*79
$GPGSV,3,2,11,16,51,003,,22,08,215,42,26,32,040,,27,77,153,*73
$GPGSV,3,3,11,31,27,098,33,40,20,257,,41,46,238,49*4A
$GLGSV,3,1,10,68,07,183,,69,37,227,46,70,27,300,36,78,07,074,*64
$GLGSV,3,2,10,79,33,029,23,80,27,323,37,81,38,064,21,82,43,134,*62
$GLGSV,3,3,10,83,12,175,,88,02,027,20*6A
$GNRMC,094532.00,A,2241.52227,N,11417.56256,E,0.014,,241220,,,D*65
$GNGGA,094532.00,2241.52227,N,11417.56256,E,2,10,0.95,83.9,M,-1.7,M,,0000*69
$GNRMC,094533.00,A,2241.52230,N,11417.56264,E,0.024,,241220,,,D*60
$GNGGA,094533.00,2241.52230,N,11417.56264,E,2,10,2.97,83.8,M,-1.7,M,,0000*6E
$GNRMC,094534.00,A,2241.52228,N,11417.56236,E,0.017,,241220,,,D*69
$GNRMC,094535.00,A,2241.52231,N,11417.56255,E,0.005,,241220,,,D*66
$GNGGA,094535.00,2241.52231,N,11417.56255,E,2,10,2.97,84.0,M,-1.7,M,,0000*64
$GNGSA,A,3,04,08,09,22,03,41,31,,,,,,3.50,2.97,1.85*1B
$GNGSA,A,3,69,70,80,,,,,,,,,,3.50,2.97,1.85*1A
$GPGSV,3,1,11,03,12,236,23,04,57,294,38,08,42,203,44,09,22,316,43*7A
$GNRMC,094536.00,A,2241.52228,N,11417.56236,E,0.064,,241220,,,D*6F
$GNGGA,094536.00,2241.52228,N,11417.56236,E,2,11,0.91,84.1,M,-1.7,M,,0000*6E
$GNGSA,A,3,04,08,09,22,03,16,41,31,,,,,1.77,0.91,1.52*15
$GNGSA,A,3,69,70,80,,,,,,,,,,1.77,0.91,1.52*13
$GPGSV,3,1,11,03,12,236,23,04,57,294,38,08,42,203,44,09,22,316,43*7A
$GPGSV,3,2,11,16,51,003,23,22,08,215,42,26,32,040,,27,77,153,13*70
$GPGSV,3,3,11,31,27,098,34,40,20,257,,41,46,238,49*4D
$GLGSV,3,1,10,68,07,183,19,69,37,227,45,70,27,300,36,78,06,075,*6F
$GLGSV,3,2,10,79,33,030,25,80,27,323,35,81,38,063,,82,43,134,*6A
$GLGSV,3,3,10,83,12,175,,88,02,027,23*69
$GNRMC,094537.00,A,2241.52229,N,11417.56258,E,0.101,,241220,,,D*65
$GNGGA,094537.00,2241.52229,N,11417.56258,E,2,11,2.97,84.1,M,-1.7,M,,0000*62
$GNGSA,A,3,04,08,09,22,03,16,41,31,,,,,3.50,2.97,1.85*1C
$GNGSA,A,3,69,70,80,,,,,,,,,,3.50,2.97,1.85*1A
$GPGSV,3,1,11,03,12,236,23,04,57,294,38,08,42,203,44,09,22,316,44*7D
$GPGSV,3,2,11,16,51,003,24,22,08,215,42,26,32,040,,27,77,153,13*77
$GPGSV,3,3,11,31,27,098,34,40,20,257,,41,46,238,49*4D
$GLGSV,3,1,10,68,07,183,18,69,37,227,45,70,27,300,36,78,06,075,*6E
$GLGSV,3,2,10,79,33,030,23,80,27,323,35,81,38,063,,82,43,134,*6C
$GLGSV,3,3,10,83,12,175,,88,02,027,23*69
$GNRMC,094538.00,A,2241.52227,N,11417.56229,E,0.123,,241220,,,D*62
$GNGGA,094538.00,2241.52227,N,11417.56229,E,2,11,0.91,84.3,M,-1.7,M,,0000*63
$GNGSA,A,3,04,08,09,22,03,16,41,31,,,,,1.77,0.91,1.52*15
$GNGSA,A,3,69,70,80,,,,,,,,,,1.77,0.91,1.52*13
$GPGSV,3,1,11,03,12,236,23,04,57,294,38,08,42,203,44,09,22,316,44*7D
$GPGSV,3,2,11,16,51,003,23,22,08,215,42,26,32,040,,27,77,153,12*71
$GPGSV,3,3,11,31,27,098,33,40,20,257,,41,46,238,49*4A
$GLGSV,3,1,10,68,07,183,16,69,37,227,45,70,27,300,36,78,06,075,*60
$GLGSV,3,2,10,79,33,030,22,80,27,323,35,81,38,063,23,82,43,134,22*6C
$GLGSV,3,3,10,83,12,175,,88,02,027,24*6E
$GNRMC,094539.00,A,2241.52229,N,11417.56237,E,0.078,,241220,,,D*6D
$GNGGA,094539.00,2241.52229,N,11417.56237,E,2,11,2.97,84.2,M,-1.7,M,,0000*66
$GNGSA,A,3,04,08,09,22,03,16,41,31,,,,,3.50,2.97,1.85*1C
$GNGSA,A,3,69,70,80,,,,,,,,,,3.50,2.97,1.85*1A
$GPGSV,3,1,11,03,12,236,22,04,57,294,38,08,42,203,44,09,22,316,44*7C
$GPGSV,3,2,11,16,51,003,23,22,08,215,42,26,32,040,,27,77,153,12*71
$GPGSV,3,3,11,31,27,098,33,40,20,257,,41,46,238,49*4A
$GLGSV,3,1,10,68,07,183,15,69,37,227,46,70,27,300,36,78,06,075,*60
$GLGSV,3,2,10,79,33,030,22,80,27,323,35,81,38,063,22,82,43,134,21*6E
$GLGSV,3,3,10,83,12,175,,88,02,027,23*69
$GNRMC,094540.00,A,2241.52226,N,11417.56206,E,0.017,,241220,,,D*67
$GNGGA,094540.00,2241.52226,N,11417.56206,E,2,11,0.91,84.3,M,-1.7,M,,0000*60
$GNGSA,A,3,04,08,09,22,03,16,41,31,,,,,1.77,0.91,1.52*15
$GNGSA,A,3,69,70,80,,,,,,,,,,1.77,0.91,1.52*13
$GPGSV,3,1,11,03,12,236,22,04,57,294,38,08,42,203,44,09,22,316,44*7C
$GPGSV,3,2,11,16,51,003,23,22,08,215,42,26,32,040,,27,77,153,09*7B
$GPGSV,3,3,11,31,27,098,33,40,20,257,,41,46,238,49*4A
$GLGSV,3,1,10,68,07,183,15,69,37,227,46,70,27,300,37,78,06,075,*61
$GLGSV,3,2,10,79,33,030,21,80,27,323,36,81,38,063,22,82,43,134,22*6D
$GLGSV,3,3,10,83,12,175,,88,02,027,22*68
$GNRMC,094541.00,A,2241.52228,N,11417.56215,E,0.027,,241220,,,D*69
$GNGGA,094541.00,2241.52228,N,11417.56215,E,2,11,2.97,84.3,M,-1.7,M,,0000*69
$GNGSA,A,3,04,08,09,22,03,16,41,31,,,,,3.50,2.97,1.85*1C
$GNGSA,A,3,69,70,80,,,,,,,,,,3.50,2.97,1.85*1A
$GPGSV,3,1,11,03,12,236,22,04,57,294,38,08,42,203,44,09,22,316,44*7C
$GPGSV,3,2,11,16,51,003,22,22,08,215,42,26,32,040,,27,77,153,09*7A
$GPGSV,3,3,11,31,27,098,32,40,20,257,,41,46,238,49*4B
$GLGSV,3,1,10,68,07,183,13,69,37,227,46,70,27,300,37,78,06,075,*67
$GLGSV,3,2,10,79,33,030,21,80,27,323,36,81,38,063,21,82,43,134,22*6E
$GLGSV,3,3,10,83,12,175,,88,01,027,21*68
$GNRMC,094543.00,A,2241.52227,N,11417.56200,E,0.078,,241220,,,D*6A
$GNGGA,094543.00,2241.52227,N,11417.56200,E,2,10,2.97,84.2,M,-1.7,M,,0000*60
$GNGSA,A,3,04,08,09,22,03,41,31,,,,,,3.50,2.97,1.85*1B
$GNGSA,A,3,69,70,80,,,,,,,,,,3.50,2.97,1.85*1A
$GPGSV,3,1,11,03,12,236,20,04,57,294,38,08,42,203,44,09,22,316,44*7E
$GNRMC,094545.00,A,2241.52221,N,11417.56151,E,0.096,,241220,,,D*6D
$GNGSA,A,3,69,70,80,,,,,,,,,,1.77,0.91,1.52*13
$GPGSV,3,1,12,03,11,235,16,04,57,293,39,08,42,203,44,09,22,316,44*7E
$GNRMC,094547.00,A,2241.52219,N,11417.56145,E,0.076,,241220,,,D*6F
$GNGGA,094547.00,2241.52219,N,11417.56145,E,2,10,0.91,84.1,M,-1.7,M,,0000*6C
$GNGSA,A,3,04,08,09,22,03,41,31,,,,,,1.77,0.91,1.51*11
$GNRMC,094548.00,A,2241.52215,N,11417.56114,E,0.015,,241220,,,D*6D
$GNRMC,094549.00,A,2241.52216,N,11417.56124,E,0.104,,241220,,,D*6D
$GNGGA,094549.00,2241.52216,N,11417.56124,E,2,10,2.97,84.1,M,-1.7,M,,0000*6E
$GNGSA,A,3,04,08,09,22,03,41,31,,,,,,3.50,2.97,1.85*1B
$GNGSA,A,3,69,70,80,,,,,,,,,,3.50,2.97,1.85*1A
$GPGSV,3,1,11,03,11,235,15,04,57,293,39,08,42,203,44,09,22,316,45*7F
$GPGSV,3,2,11,16,51,003,,22,08,215,42,26,32,040,,27,77,153,15*77
$GPGSV,3,3,11,31,27,098,30,40,20,257,,41,46,238,49*49
$GLGSV,3,1,10,68,07,183,14,69,37,227,45,70,27,300,36,78,06,075,*62
$GLGSV,3,2,10,79,33,030,21,80,27,323,34,81,38,063,23,82,43,134,16*69
$GLGSV,3,3,10,83,12,175,,88,01,027,17*6D
$GNRMC,094550.00,A,2241.52213,N,11417.56102,E,0.063,,241220,,,D*64
$GNGGA,094550.00,2241.52213,N,11417.56102,E,2,10,0.91,84.3,M,-1.7,M,,0000*61
$GNGSA,A,3,04,08,09,22,03,41,31,,,,,,1.77,0.91,1.51*11
$GNGSA,A,3,69,70,80,,,,,,,,,,1.77,0.91,1.51*10
$GPGSV,3,1,11,03,11,235,10,04,57,293,39,08,42,203,44,09,22,315,45*79
$GPGSV,3,2,11,16,51,003,,22,08,215,42,26,32,040,,27,77,153,13*71
$GPGSV,3,3,11,31,27,098,30,40,20,257,,41,46,238,49*49
$GLGSV,3,1,10,68,07,183,13,69,37,227,45,70,27,300,36,78,06,075,*65
$GLGSV,3,2,10,79,33,030,21,80,27,323,35,81,38,063,26,82,43,134,15*6E
$GLGSV,3,3,10,83,12,175,,88,01,027,16*6C
$GNRMC,094551.00,A,2241.52214,N,11417.56114,E,0.063,,241220,,,D*65
$GLGSV,3,2,10,79,33,030,21,80,27,323,35,81,38,063,27,82,43,134,14*6E
$GLGSV,3,3,10,83,12,175,,88,01,027,17*6D
$GNRMC,094552.00,A,2241.52212,N,11417.56098,E,0.001,,241220,,,D*61
$GNGGA,094552.00,2241.52212,N,11417.56098,E,2,10,0.95,84.2,M,-1.7,M,,0000*65
$GNGSA,A,3,04,08,09,22,03,41,31,,,,,,1.93,0.95,1.68*15
$GNGSA,A,3,69,70,80,,,,,,,,,,1.93,0.95,1.68*14
$GPGSV,3,1,11,03,11,235,18,04,57,293,39,08,42,203,44,09,22,315,45*71
$GPGSV,3,2,11,16,51,003,,22,08,215,42,26,32,040,,27,77,153,*73
$GPGSV,3,3,11,31,27,098,30,40,20,257,,41,46,238,49*49
$GLGSV,3,1,10,68,07,183,12,69,37,227,46,70,27,300,36,78,06,075,*67
$GLGSV,3,2,10,79,33,030,22,80,27,323,35,81,38,063,27,82,43,134,14*6D
$GLGSV,3,3,10,83,12,175,,88,01,027,19*63
$GNRMC,094553.00,A,2241.52210,N,11417.56073,E,0.033,,241220,,,D*66
$GNGGA,094553.00,2241.52210,N,11417.56073,E,2,10,0.95,84.3,M,-1.7,M,,0000*62
$GNGSA,A,3,04,08,09,22,03,41,31,,,,,,1.93,0.95,1.68*15
$GNGSA,A,3,69,70,80,,,,,,,,,,1.93,0.95,1.68*14
$GPGSV,3,1,11,03,11,235,20,04,57,293,39,08,42,203,44,09,22,315,45*7A
$GPGSV,3,2,11,16,51,003,,22,08,215,42,26,32,040,,27,77,153,*73
$GPGSV,3,3,11,31,27,098,30,40,20,257,,41,46,238,49*49
$GLGSV,3,1,10,68,07,183,12,69,37,227,46,70,27,300,36,78,06,075,*67
$GLGSV,3,2,10,79,33,030,22,80,27,323,36,81,38,063,27,82,43,134,*6B
$GLGSV,3,3,10,83,12,175,,88,01,027,21*68
$GNRMC,094554.00,A,2241.52211,N,11417.56091,E,0.017,,241220,,,D*6A
$GNRMC,094555.00,A,2241.52210,N,11417.56081,E,0.054,,241220,,,D*6C
$GPGSV,3,1,11,03,11,235,23,04,57,293,38,08,42,203,44,09,22,315,45*78
$GPGSV,3,2,11,16,51,003,,22,08,215,42,26,32,040,,27,77,153,*73
$GNRMC,094559.00,A,2241.52203,N,11417.56030,E,0.076,,241220,,,D*68
$GPGSV,3,3,11,31,27,098,28,40,20,257,,41,46,238,49*40
$GLGSV,3,1,10,68,07,183,,69,37,227,45,70,27,300,37,78,06,075,*66
$GLGSV,3,3,10,83,12,175,,88,01,027,19*63
$GNRMC,094603.00,A,2241.52201,N,11417.56006,E,0.072,,241220,,,D*67
$GNGGA,094603.00,2241.52201,N,11417.56006,E,2,10,3.46,84.3,M,-1.7,M,,0000*6B
$GNGSA,A,3,04,08,09,22,03,41,31,,,,,,3.93,3.46,1.86*1A
$GNGSA,A,3,69,70,80,,,,,,,,,,3.93,3.46,1.86*1B
$GPGSV,3,1,11,03,11,235,25,04,57,293,39,08,42,203,44,09,22,315,44*7E
$GPGSV,3,2,11,16,51,004,,22,08,214,42,26,31,040,,27,77,152,*77
$GPGSV,3,3,11,31,27,098,29,40,20,257,,41,46,238,49*41
$GLGSV,3,1,10,68,07,183,,69,37,227,46,70,27,300,36,78,06,075,*64
$GLGSV,3,2,10,79,33,030,21,80,27,323,37,81,38,063,26,82,43,134,*68
$GLGSV,3,3,10,83,12,175,,88,01,027,18*62
$GNGSA,A,3,04,08,09,22,03,41,31,,,,,,1.93,0.95,1.68*15
$GNGSA,A,3,69,70,80,,,,,,,,,,1.93,0.95,1.68*14
$GPGSV,3,1,11,03,11,235,24,04,57,293,38,08,42,203,44,09,22,315,44*7E
$GPGSV,3,2,11,16,51,004,,22,08,214,42,26,31,040,,27,77,152,*77
$GPGSV,3,3,11,31,26,099,29,40,20,257,,41,46,238,49*41
$GLGSV,3,1,10,68,07,183,,69,37,227,46,70,27,300,36,78,06,075,*64
$GLGSV,3,2,10,79,33,030,18,80,27,323,36,81,38,063,25,82,43,134,*60
$GLGSV,3,3,10,83,12,175,,88,01,027,17*6D
$GNRMC,094606.00,A,2241.52194,N,11417.55954,E,0.009,,241220,,,D*6C
$GNGGA,094606.00,2241.52194,N,11417.55954,E,2,10,0.95,84.8,M,-1.7,M,,0000*6A
$GNGSA,A,3,04,08,09,22,03,41,31,,,,,,1.93,0.95,1.68*15
$GNGSA,A,3,69,70,80,,,,,,,,,,1.93,0.95,1.68*14
$GPGSV,3,1,11,03,11,235,23,04,57,293,38,08,42,203,44,09,22,315,44*79
$GPGSV,3,2,11,16,51,004,,22,08,214,42,26,31,040,24,27,77,152,*71
$GPGSV,3,3,11,31,26,099,29,40,20,257,,41,46,238,49*41
$GLGSV,3,1,10,68,07,183,,69,37,227,46,70,27,300,35,78,06,075,*67
$GLGSV,3,2,10,79,33,030,19,80,27,323,36,81,38,063,25,82,43,134,*61
$GLGSV,3,3,10,83,12,175,,88,01,027,18*62
$GNRMC,094607.00,A,2241.52194,N,11417.55973,E,0.045,,241220,,,D*60
$GNGGA,094607.00,2241.52194,N,11417.55973,E,2,10,3.45,84.7,M,-1.7,M,,0000*6F
$GNGSA,A,3,04,08,09,22,03,41,31,,,,,,3.92,3.45,1.86*18
$GNGSA,A,3,69,70,80,,,,,,,,,,3.92,3.45,1.86*19
$GPGSV,3,1,11,03,11,235,23,04,57,293,38,08,42,203,44,09,22,315,44*79
$GPGSV,3,2,11,16,51,004,26,22,08,214,43,26,31,040,23,27,77,152,*73
$GPGSV,3,3,11,31,26,099,29,40,20,257,,41,46,238,49*41
$GLGSV,3,1,10,68,07,183,,69,37,227,46,70,27,300,35,78,06,075,*67
$GLGSV,3,2,10,79,33,030,19,80,27,323,36,81,38,063,24,82,43,134,*60
$GLGSV,3,3,10,83,12,175,,88,01,027,19*63
$GNRMC,094608.00,A,2241.52192,N,11417.55963,E,0.117,,241220,,,D*6E
$GNGGA,094608.00,2241.52192,N,11417.55963,E,2,10,0.95,84.8,M,-1.7,M,,0000*66
$GPGSV,3,1,11,03,11,235,23,04,57,293,38,08,42,203,44,09,22,315,44*79
$GPGSV,3,2,11,16,51,004,,22,08,214,43,26,31,040,,27,77,152,*76
$GNGGA,094610.00,2241.52189,N,11417.55964,E,2,11,2.96,85.0,M,-1.7,M,,0000*6B
$GNGSA,A,3,04,08,09,22,03,41,31,,,,,,3.49,2.96,1.84*13
$GNRMC,094612.00,A,2241.52183,N,11417.55928,E,0.096,,241220,,,D*62
$GNRMC,094613.00,A,2241.52184,N,11417.55938,E,0.073,,241220,,,D*6E
$GNGGA,094613.00,2241.52184,N,11417.55938,E,2,11,2.96,85.4,M,-1.7,M,,0000*68
$GNRMC,094614.00,A,2241.52182,N,11417.55921,E,0.061,,241220,,,D*64
$GNGGA,094614.00,2241.52182,N,11417.55921,E,2,11,0.91,85.6,M,-1.7,M,,0000*66
$GNGSA,A,3,04,08,09,22,03,41,31,,,,,,1.76,0.91,1.51*10
$GNGSA,A,3,69,70,80,81,,,,,,,,,1.76,0.91,1.51*18
$GNRMC,094615.00,A,2241.52179,N,11417.55900,E,0.037,,241220,,,D*61
$GNGGA,094615.00,2241.52179,N,11417.55900,E,2,11,0.91,85.9,M,-1.7,M,,0000*6F
$GNGSA,A,3,04,08,09,22,03,41,31,,,,,,1.76,0.91,1.51*10
$GNGSA,A,3,69,70,80,81,,,,,,,,,1.76,0.91,1.51*18
$GPGSV,3,2,12,16,51,004,,18,04,062,,22,08,214,42,26,31,040,24*78
$GPGSV,3,3,12,27,77,152,20,31,26,099,29,40,20,257,,41,46,238,49*73
$GLGSV,3,1,10,68,07,183,,69,37,227,45,70,27,300,36,78,06,075,*67
$GLGSV,3,2,10,79,33,030,16,80,27,323,36,81,38,063,22,82,43,134,*69
$GLGSV,3,3,10,83,12,175,,88,01,027,20*69
$GNRMC,094616.00,A,2241.52176,N,11417.55870,E,0.050,,241220,,,D*6A
$GNGGA,094616.00,2241.52176,N,11417.55870,E,2,11,0.91,86.1,M,-1.7,M,,0000*6E
$GNGSA,A,3,04,08,09,22,03,41,31,,,,,,1.76,0.91,1.51*10
$GNGSA,A,3,69,70,80,81,,,,,,,,,1.76,0.91,1.51*18
$GPGSV,3,1,12,03,11,235,20,04,57,293,37,08,42,203,44,09,22,315,43*71
$GPGSV,3,2,12,16,51,004,,18,04,062,,22,08,214,42,26,31,040,26*7A
$GPGSV,3,3,12,27,77,152,20,31,26,099,29,40,20,257,,41,46,238,49*73
$GLGSV,3,1,10,68,07,183,,69,37,227,46,70,27,300,36,78,06,075,*64
$GLGSV,3,2,10,79,33,030,15,80,27,323,36,81,38,063,23,82,43,134,*6B
$GLGSV,3,3,10,83,12,175,,88,01,027,20*69
$GNRMC,094617.00,A,2241.52171,N,11417.55833,E,0.127,,241220,,,D*6A
$GNGGA,094617.00,2241.52171,N,11417.55833,E,2,11,0.91,86.3,M,-1.7,M,,0000*6D
$GNGSA,A,3,04,08,09,22,03,41,31,,,,,,1.76,0.91,1.51*10
$GNGSA,A,3,69,70,80,81,,,,,,,,,1.76,0.91,1.51*18
$GPGSV,3,1,12,03,11,235,20,04,57,293,37,08,42,203,44,09,22,315,43*71
$GPGSV,3,2,12,16,51,004,,18,04,062,,22,08,214,42,26,31,040,24*78
$GPGSV,3,3,12,27,77,152,19,31,26,099,29,40,20,257,,41,46,238,49*79
$GLGSV,3,1,10,68,07,183,,69,37,227,46,70,27,300,36,78,06,075,*64
$GLGSV,3,2,10,79,33,030,15,80,27,323,36,81,38,063,23,82,43,134,*6B
$GLGSV,3,3,10,83,12,175,,88,01,027,19*63
$GNGSA,A,3,69,70,80,81,,,,,,,,,3.48,2.96,1.84*1A
$GPGSV,3,1,12,03,11,235,19,04,57,293,37,08,42,203,44,09,22,315,43*7B
$GPGSV,3,2,12,16,51,004,,18,04,062,,22,08,214,43,26,31,040,*7F
$GPGSV,3,3,12,27,77,152,20,31,26,099,29,40,20,257,,41,46,238,49*73
$GLGSV,3,1,10,68,07,183,,69,37,227,46,70,27,300,36,78,06,075,*64
$GLGSV,3,2,10,79,33,030,16,80,27,323,36,81,38,063,24,82,43,134,*6F
$GLGSV,3,3,10,83,12,175,,88,01,027,17*6D
$GNRMC,094619.00,A,2241.52170,N,11417.55837,E,0.031,,241220,,,D*67
$GNGGA,094620.00,2241.52169,N,11417.55825,E,2,11,0.91,86.5,M,-1.7,M,,0000*61
$GNGSA,A,3,04,08,09,22,03,41,31,,,,,,1.76,0.91,1.51*10
$GNGSA,A,3,69,70,80,81,,,,,,,,,1.76,0.91,1.51*18
$GPGSV,3,1,12,03,11,235,20,04,57,293,37,08,42,203,44,09,22,315,43*71
$GLGSV,3,1,10,68,07,183,20,69,37,227,46,70,27,300,36,78,06,075,*66
$GLGSV,3,2,10,79,33,030,18,80,27,323,36,81,38,063,23,82,43,134,*66
$GLGSV,3,3,10,83,12,175,,88,01,027,14*6E
$GNRMC,094621.00,A,2241.52166,N,11417.55810,E,0.047,,241220,,,D*6F
$GNGGA,094621.00,2241.52166,N,11417.55810,E,2,11,0.91,86.6,M,-1.7,M,,0000*6A
$GNGSA,A,3,04,08,09,22,03,41,31,,,,,,1.76,0.91,1.51*10
$GNGSA,A,3,69,70,80,81,,,,,,,,,1.76,0.91,1.51*18
$GPGSV,3,1,12,03,11,235,20,04,57,293,37,08,42,203,44,09,22,315,42*70
$GPGSV,3,2,12,16,51,004,,18,04,062,,22,08,214,43,26,31,040,*7F
$GPGSV,3,3,12,27,77,152,19,31,26,099,28,40,20,257,,41,46,238,49*78
$GLGSV,3,1,10,68,07,183,19,69,37,227,45,70,27,300,36,78,06,075,*6F
$GLGSV,3,2,10,79,33,030,18,80,27,323,36,81,38,063,22,82,43,134,*67
$GLGSV,3,3,10,83,12,175,,88,01,027,12*68
$GNRMC,094623.00,A,2241.52165,N,11417.55819,E,0.108,,241220,,,D*6D
$GNGGA,094623.00,2241.52165,N,11417.55819,E,2,11,2.96,86.9,M,-1.7,M,,0000*68
$GNGSA,A,3,04,08,09,22,03,41,31,,,,,,3.48,2.96,1.84*12
$GNGSA,A,3,69,70,80,81,,,,,,,,,3.48,2.96,1.84*1A
$GNRMC,094626.00,A,2241.52157,N,11417.55779,E,0.131,,241220,,,D*6A
$GNGGA,094626.00,2241.52157,N,11417.55779,E,2,11,0.91,87.3,M,-1.7,M,,0000*6B
$GNGSA,A,3,04,08,09,22,03,41,31,,,,,,1.76,0.91,1.51*10
$GNGSA,A,3,69,70,80,81,,,,,,,,,1.76,0.91,1.51*18
$GNRMC,094627.00,A,2241.52160,N,11417.55790,E,0.032,,241220,,,D*6A
$GNGGA,094627.00,2241.52160,N,11417.55790,E,2,11,2.95,87.3,M,-1.7,M,,0000*6F
$GNGSA,A,3,04,08,09,22,03,41,31,,,,,,3.48,2.95,1.84*11
$GNGSA,A,3,69,70,80,81,,,,,,,,,3.48,2.95,1.84*19
$GPGSV,3,1,12,03,11,235,22,04,57,293,38,08,42,203,44,09,22,315,42*7D
$GPGSV,3,2,12,16,51,004,,18,04,062,,22,08,214,43,26,31,040,25*78
$GPGSV,3,3,12,27,77,152,24,31,26,099,29,40,20,257,,41,46,238,49*77
$GLGSV,3,1,10,68,07,183,19,69,37,227,45,70,27,300,36,78,06,075,*6F
$GNGSA,A,3,69,70,80,81,,,,,,,,,1.76,0.91,1.51*18
$GPGSV,3,3,12,27,77,152,25,31,26,099,30,40,20,257,,41,46,238,49*7E
$GNGGA,094631.00,2241.52158,N,11417.55738,E,2,11,0.91,87.3,M,-1.7,M,,0000*67
$GNRMC,094632.00,A,2241.52161,N,11417.55754,E,0.044,,241220,,,D*66
$GLGSV,3,3,10,83,12,175,,88,01,027,*6B
$GPGSV,3,3,12,27,77,152,23,31,26,099,30,40,20,257,,41,46,238,49*78
$GLGSV,3,1,10,68,07,183,20,69,36,227,45,70,28,299,37,78,06,075,*6B
$GLGSV,3,2,10,79,33,030,,80,27,323,34,81,38,063,25,82,43,134,19*63
$GLGSV,3,3,10,83,12,175,,88,01,027,*6B
$GNRMC,094634.00,A,2241.52155,N,11417.55699,E,0.043,,241220,,,D*60
$GNGGA,094634.00,2241.52155,N,11417.55699,E,2,11,0.91,87.4,M,-1.7,M,,0000*62
$GLGSV,3,1,10,68,07,183,19,69,36,227,45,70,28,299,37,78,06,075,*61
$GLGSV,3,2,10,79,33,030,,80,27,323,34,81,38,063,24,82,43,134,16*6D
$GLGSV,3,3,10,83,12,175,,88,01,027,*6B
$GNRMC,094635.00,A,2241.52157,N,11417.55727,E,0.021,,241220,,,D*63
$GNGSA,A,3,04,08,09,22,03,41,31,,,,,,3.47,2.95,1.84*1E
$GNGSA,A,3,69,70,80,81,,,,,,,,,3.47,2.95,1.84*16
$GPGSV,3,1,12,03,11,235,25,04,57,293,39,08,42,203,44,09,22,315,42*7B
$GPGSV,3,2,12,16,51,004,,18,04,062,,22,08,214,43,26,31,040,24*79
$GPGSV,3,3,12,27,77,152,23,31,26,099,30,40,20,257,,41,46,238,49*78
$GNGSA,A,3,04,08,09,22,03,41,31,,,,,,1.76,0.91,1.51*10
$GNGSA,A,3,69,70,80,81,,,,,,,,,1.76,0.91,1.51*18
$GPGSV,3,1,12,03,11,235,24,04,57,293,39,08,42,203,44,09,22,315,42*7A
$GPGSV,3,2,12,16,51,004,,18,04,062,,22,08,214,43,26,31,040,24*79
$GLGSV,3,2,10,79,33,030,,80,27,323,33,81,38,063,22,82,43,134,16*6C
$GLGSV,3,3,10,83,12,175,,88,01,027,*6B
$GNRMC,094637.00,A,2241.52153,N,11417.55718,E,0.044,,241220,,,D*6A
$GPGSV,4,1,13,03,11,235,23,04,57,293,39,08,42,203,43,09,22,315,42*7C
$GPGSV,4,2,13,16,51,004,,18,04,062,,22,08,214,42,24,,,29*47
$GPGSV,4,3,13,26,31,040,24,27,77,152,24,31,26,099,30,40,20,257,*7E
$GPGSV,4,4,13,41,46,238,49*48
$GLGSV,3,1,10,68,07,183,19,69,36,227,45,70,28,299,36,78,06,075,*60
$GLGSV,3,2,10,79,33,030,,80,27,323,33,81,38,063,21,82,43,134,17*6E
$GLGSV,3,3,10,83,12,175,,88,01,027,*6B
$GNRMC,094638.00,A,2241.52157,N,11417.55753,E,0.082,,241220,,,D*64
$GNGGA,094640.00,2241.52157,N,11417.55756,E,2,11,0.91,86.7,M,-1.7,M,,0000*63
$GNGSA,A,3,04,08,09,22,03,41,31,,,,,,1.76,0.91,1.51*10
$GNGSA,A,3,69,70,80,81,,,,,,,,,1.76,0.91,1.51*18
$GNRMC,094642.00,A,2241.52158,N,11417.55761,E,0.121,,241220,,,D*6F
$GNRMC,094646.00,A,2241.52157,N,11417.55771,E,0.020,,241220,,,D*65
$GNGSA,A,3,69,70,80,81,,,,,,,,,1.76,0.91,1.51*18
$GPGSV,3,1,12,03,11,235,21,04,57,293,39,08,42,203,44,09,22,315,44*79
$GPGSV,3,2,12,16,51,004,24,18,04,062,,22,08,214,42,26,31,040,23*79
$GPGSV,3,3,12,27,77,152,25,31,26,099,31,40,20,257,,41,46,238,49*7F
$GLGSV,3,1,10,68,07,183,20,69,36,227,45,70,28,299,37,78,06,075,*6B
$GLGSV,3,2,10,79,33,030,,80,27,324,31,81,38,062,19,82,44,133,18*6E
$GLGSV,3,3,10,83,13,175,,88,01,027,*6A
$GNRMC,094647.00,A,2241.52154,N,11417.55758,E,0.020,,241220,,,D*6C
$GNGGA,094647.00,2241.52154,N,11417.55758,E,2,12,0.91,85.8,M,-1.7,M,,0000*66
$GNGSA,A,3,04,08,09,22,03,16,41,31,,,,,1.76,0.91,1.51*17
$GNGSA,A,3,69,70,80,81,,,,,,,,,1.76,0.91,1.51*18
$GPGSV,3,1,12,03,11,235,23,04,57,293,39,08,42,203,44,09,22,315,44*7B
$GPGSV,3,2,12,16,51,004,25,18,04,062,,22,08,214,42,26,31,040,22*79
$GPGSV,3,3,12,27,77,152,24,31,26,099,30,40,20,257,,41,46,238,49*7F
$GNRMC,094648.00,A,2241.52154,N,11417.55776,E,0.067,,241220,,,D*6C
$GNGGA,094649.00,2241.52151,N,11417.55768,E,2,12,0.91,85.5,M,-1.7,M,,0000*63
$GNGSA,A,3,04,08,09,22,03,16,41,31,,,,,1.76,0.91,1.51*17
$GNGSA,A,3,69,70,80,81,,,,,,,,,1.76,0.91,1.51*18
$GPGSV,3,1,12,03,11,235,24,04,57,293,39,08,42,203,43,09,22,315,44*7B
$GPGSV,3,2,12,16,51,004,24,18,04,062,,22,08,214,42,26,31,040,*78
$GPGSV,3,3,12,27,77,152,22,31,26,099,31,40,20,257,,41,46,238,49*78
$GLGSV,3,1,10,68,07,183,19,69,36,227,45,70,28,299,37,78,06,075,*61
$GLGSV,3,2,10,79,33,030,,80,27,324,30,81,38,062,10,82,44,133,21*6C
$GLGSV,3,3,10,83,13,175,,88,01,026,*6B
$GNRMC,094650.00,A,2241.52145,N,11417.55740,E,0.027,,241220,,,D*64
$GNGGA,094650.00,2241.52145,N,11417.55740,E,2,12,0.87,85.5,M,-1.7,M,,0000*63
$GNGSA,A,3,04,08,09,22,03,16,41,31,,,,,1.69,0.87,1.45*1B
$GPGSV,3,3,12,27,77,152,,31,26,099,32,40,20,257,,41,46,238,49*7B
$GLGSV,3,1,10,68,07,183,19,69,36,227,45,70,28,299,37,78,06,075,*61
$GLGSV,3,3,10,83,13,175,,88,01,026,*6B
$GNRMC,094651.00,A,2241.52144,N,11417.55756,E,0.027,,241220,,,D*63
$GNGSA,A,3,69,70,80,81,,,,,,,,,2.47,1.75,1.73*12
$GPGSV,3,1,12,03,11,235,25,04,58,292,39,08,42,203,44,09,22,315,44*73
$GPGSV,3,2,12,16,51,004,22,18,04,062,,22,08,214,42,26,31,040,*7E
$GPGSV,3,3,12,27,77,152,,31,26,099,32,40,20,257,,41,46,238,49*7B
$GNRMC,094654.00,A,2241.52135,N,11417.55743,E,0.011,,241220,,,D*61
$GNGGA,094654.00,2241.52135,N,11417.55743,E,2,12,0.87,85.1,M,-1.7,M,,0000*67
$GPGSV,3,1,12,03,11,235,23,04,58,292,39,08,43,203,44,09,22,315,45*75
$GLGSV,3,1,10,68,07,183,19,69,36,227,46,70,28,299,35,78,06,075,*60
$GNRMC,094658.00,A,2241.52127,N,11417.55740,E,0.094,,241220,,,D*60
$GNGGA,094658.00,2241.52127,N,11417.55740,E,2,12,0.87,84.8,M,-1.7,M,,0000*63
$GNGSA,A,3,04,08,09,22,03,16,41,31,,,,,1.69,0.87,1.45*1B
$GNGSA,A,3,69,70,80,81,,,,,,,,,1.69,0.87,1.45*14
$GPGSV,3,1,12,03,11,235,20,04,58,292,38,08,43,203,44,09,23,315,45*76
$GPGSV,3,2,12,16,51,004,24,18,04,062,,22,08,214,42,26,31,040,*78
$GPGSV,3,3,12,27,77,152,25,31,26,099,33,40,20,257,,41,46,238,49*7D
$GPGSV,3,3,12,27,77,152,26,31,26,099,31,40,20,257,,41,46,238,49*7C
$GLGSV,3,2,10,79,33,030,,80,27,324,33,81,38,062,23,82,44,133,*6C
$GLGSV,3,3,10,83,13,175,,88,01,026,*6B
$GNGGA,094702.00,2241.52112,N,11417.55704,E,2,12,2.94,84.8,M,-1.7,M,,0000*6B
$GNGSA,A,3,04,08,09,22,03,16,41,31,,,,,3.46,2.94,1.83*1E
$GNGSA,A,3,69,70,80,81,,,,,,,,,3.46,2.94,1.83*11
$GPGSV,3,1,12,03,11,235,22,04,58,292,39,08,43,203,44,09,23,315,45*75
$GPGSV,3,2,12,16,51,004,24,18,04,062,,22,08,214,41,26,31,040,*7B
$GPGSV,3,3,12,27,77,152,26,31,26,099,31,40,20,257,,41,46,238,49*7C
$GLGSV,3,1,10,68,07,183,20,69,36,227,46,70,28,299,34,78,06,075,*6B
$GLGSV,3,2,10,79,33,030,20,80,27,324,33,81,38,062,25,82,44,133,*68
$GLGSV,3,3,10,83,13,175,,88,01,026,*6B
$GNRMC,094703.00,A,2241.52107,N,11417.55691,E,0.025,,241220,,,D*6A
$GNGGA,094703.00,2241.52107,N,11417.55691,E,2,12,0.95,84.9,M,-1.7,M,,0000*61
$GNGSA,A,3,04,08,09,22,03,16,41,31,,,,,1.92,0.95,1.68*13
$GNGSA,A,3,69,70,80,81,,,,,,,,,1.92,0.95,1.68*1C
$GPGSV,3,1,12,03,11,235,23,04,58,292,39,08,43,203,44,09,23,315,45*74
$GPGSV,3,2,12,16,51,004,24,18,04,062,,22,08,214,42,26,31,040,*78
$GPGSV,3,3,12,27,77,152,26,31,26,099,31,40,20,257,,41,46,238,49*7C
$GLGSV,3,1,10,68,07,183,19,69,36,227,46,70,28,299,35,78,06,075,*60
$GLGSV,3,2,10,79,33,030,20,80,27,324,33,81,38,062,26,82,44,133,*6B
$GLGSV,3,3,10,83,13,175,,88,01,026,*6B
$GNRMC,094704.00,A,2241.52100,N,11417.55673,E,0.028,,241220,,,D*6B
$GNGGA,094704.00,2241.52100,N,11417.55673,E,2,12,0.95,85.0,M,-1.7,M,,0000*65
$GNGSA,A,3,04,08,09,22,03,16,41,31,,,,,1.92,0.95,1.68*13
$GNGSA,A,3,69,70,80,81,,,,,,,,,1.92,0.95,1.68*1C
$GNRMC,094707.00,A,2241.52090,N,11417.55667,E,0.007,,241220,,,D*68
$GNRMC,094708.00,A,2241.52087,N,11417.55656,E,0.032,,241220,,,D*65
$GNGGA,094708.00,2241.52087,N,11417.55656,E,2,12,0.99,85.2,M,-1.7,M,,0000*6E
$GNGGA,094709.00,2241.52081,N,11417.55616,E,2,12,0.80,85.5,M,-1.7,M,,0000*62
$GNGSA,A,3,04,08,09,22,03,16,41,31,,,,,1.77,0.80,1.58*1F
$GNGSA,A,3,69,70,80,81,,,,,,,,,1.77,0.80,1.58*10
$GPGSV,3,1,12,03,11,235,24,04,58,292,39,08,43,203,44,09,23,315,44*72
$GNGGA,094710.00,2241.52076,N,11417.55591,E,2,12,0.89,85.7,M,-1.7,M,,0000*65
$GNGSA,A,3,04,08,09,22,03,16,41,31,,,,,1.81,0.89,1.58*1F
$GNGSA,A,3,69,70,80,81,,,,,,,,,1.81,0.89,1.58*10
$GPGSV,3,1,12,03,11,235,23,04,58,292,39,08,43,203,44,09,23,315,44*75
$GPGSV,3,2,12,16,51,004,22,18,04,061,,22,08,214,42,26,31,040,*7D
$GPGSV,3,3,12,27,78,150,26,31,26,099,31,40,20,257,,41,46,238,49*71
$GLGSV,3,1,10,68,07,183,17,69,36,227,46,70,28,299,37,78,06,075,*6C
$GLGSV,3,2,10,79,33,030,17,80,27,324,34,81,38,062,23,82,44,133,20*6F
$GLGSV,3,3,10,83,13,175,,88,01,026,19*63
$GNGSA,A,3,04,08,09,22,03,16,41,31,,,,,1.81,0.89,1.58*1F
$GNGSA,A,3,69,70,80,81,,,,,,,,,1.81,0.89,1.58*10
$GPGSV,3,3,12,27,78,150,26,31,26,099,31,40,20,257,,41,46,238,49*71
$GLGSV,3,1,10,68,07,183,17,69,36,227,46,70,28,299,37,78,06,075,*6C
$GLGSV,3,3,10,83,13,175,,88,01,026,19*63
$GNRMC,094712.00,A,2241.52071,N,11417.55573,E,0.007,,241220,,,D*65
$GPGSV,3,2,12,16,51,004,25,18,04,061,,22,08,214,42,26,31,040,*7A
$GPGSV,3,3,12,27,78,150,26,31,26,099,32,40,20,257,,41,46,238,49*72
$GLGSV,3,1,10,68,07,183,18,69,36,227,47,70,28,299,36,78,06,075,*63
$GLGSV,3,2,10,79,33,030,17,80,27,324,35,81,38,062,24,82,44,133,18*62
$GLGSV,3,3,10,83,13,175,,88,01,026,17*6D
$GNRMC,094719.00,A,2241.52052,N,11417.55442,E,0.008,,241220,,,D*63
$GNRMC,094720.00,A,2241.52050,N,11417.55423,E,0.043,,241220,,,D*63
$GPGSV,3,1,12,03,11,235,20,04,58,292,39,08,43,203,44,09,23,315,42*70
$GPGSV,3,2,12,16,51,004,24,18,04,061,,22,08,214,41,26,31,040,*78
$GPGSV,3,3,12,27,78,150,25,31,26,099,32,40,20,257,,41,46,238,49*71
$GNRMC,094725.00,A,2241.52025,N,11417.55204,E,0.014,,241220,,,D*65
$GNGGA,094725.00,2241.52025,N,11417.55204,E,2,12,0.92,88.1,M,-1.7,M,,0000*6F
$GNGSA,A,3,04,08,09,22,03,16,27,41,31,,,,1.65,0.92,1.37*13
$GLGSV,3,1,10,68,07,183,19,69,36,227,46,70,28,299,35,78,06,075,*60
$GLGSV,3,2,10,79,33,030,22,80,27,324,35,81,38,062,17,82,44,133,*6D
$GNRMC,094726.00,A,2241.52021,N,11417.55165,E,0.012,,241220,,,D*60
$GNGGA,094726.00,2241.52021,N,11417.55165,E,2,12,0.95,88.4,M,-1.7,M,,0000*6E
$GNGSA,A,3,04,08,09,22,03,16,27,41,31,,,,1.92,0.95,1.67*19
$GPGSV,3,3,12,27,78,150,26,31,26,099,31,40,20,257,,41,46,238,49*71
$GLGSV,3,1,10,68,07,183,19,69,36,227,46,70,28,299,35,78,06,075,*60
$GLGSV,3,2,10,79,33,030,21,80,27,324,35,81,38,062,19,82,44,133,*60
$GLGSV,3,3,10,83,13,175,,88,01,026,*6B
$GNRMC,094728.00,A,2241.52013,N,11417.55087,E,0.013,,241220,,,D*63
$GNGGA,094728.00,2241.52013,N,11417.55087,E,2,12,0.95,88.8,M,-1.7,M,,0000*60
$GNGSA,A,3,04,08,09,22,03,16,27,41,31,,,,1.92,0.95,1.67*19
$GNGSA,A,3,69,70,80,81,,,,,,,,,1.92,0.95,1.67*13
$GPGSV,3,1,12,03,11,235,19,04,58,292,39,08,43,203,44,09,23,315,42*7A
$GPGSV,3,2,12,16,51,004,23,18,04,061,,22,08,214,41,26,31,040,*7F
$GPGSV,3,3,12,27,78,150,25,31,26,099,32,40,20,257,,41,46,238,49*71
$GLGSV,3,1,10,68,07,183,20,69,36,227,46,70,28,299,36,78,06,075,*69
$GLGSV,3,2,10,79,33,030,20,80,27,324,35,81,38,062,22,82,44,133,*69
$GLGSV,3,3,10,83,13,175,,88,01,026,*6B
$GNRMC,094729.00,A,2241.52009,N,11417.55047,E,0.010,,241220,,,D*66
$GNGGA,094729.00,2241.52009,N,11417.55047,E,2,12,0.95,89.0,M,-1.7,M,,0000*6F
$GNGSA,A,3,04,08,09,22,03,16,27,41,31,,,,1.92,0.95,1.67*19
$GNGSA,A,3,69,70,80,81,,,,,,,,,1.92,0.95,1.67*13
$GPGSV,3,1,12,03,11,235,19,04,58,292,39,08,43,203,44,09,23,315,42*7A
$GPGSV,3,2,12,16,51,004,23,18,04,061,,22,08,214,40,26,31,040,*7E
$GPGSV,3,3,12,27,78,150,25,31,26,099,32,40,20,257,,41,46,238,49*71
$GLGSV,3,1,10,68,07,183,19,69,36,227,47,70,28,299,36,78,06,075,*62
$GLGSV,3,2,10,79,33,030,20,80,27,324,35,81,38,062,23,82,44,133,*68
$GLGSV,3,3,10,83,13,175,,88,01,026,*6B
$GNRMC,094731.00,A,2241.52002,N,11417.54974,E,0.034,,241220,,,D*6A
$GNGSA,A,3,04,08,09,22,16,41,31,,,,,,1.81,0.89,1.58*1C
$GNGSA,A,3,69,70,80,81,,,,,,,,,1.81,0.89,1.58*10
$GPGSV,3,1,12,03,11,235,14,04,58,292,39,08,43,203,44,09,23,315,42*77
$GNRMC,094735.00,A,2241.51990,N,11417.54860,E,0.006,,241220,,,D*6A
$GNGGA,094735.00,2241.51990,N,11417.54860,E,2,11,0.89,90.0,M,-1.7,M,,0000*62
$GNGSA,A,3,04,08,09,22,16,41,31,,,,,,1.81,0.89,1.58*1C
$GNGSA,A,3,69,70,80,81,,,,,,,,,1.81,0.89,1.58*10
$GPGSV,3,1,12,03,11,235,10,04,58,292,39,08,43,203,44,09,23,315,42*73
$GPGSV,3,2,12,16,51,004,19,18,04,061,,22,08,214,40,26,31,040,*77
$GPGSV,3,3,12,27,78,150,,31,26,099,31,40,20,257,,41,46,238,49*75
$GNRMC,094736.00,A,2241.51988,N,11417.54838,E,0.017,,241220,,,D*6D
$GPGSV,3,1,12,03,11,235,08,04,58,292,39,08,43,203,44,09,23,315,42*7A
$GPGSV,3,2,12,16,51,004,19,18,04,061,,22,08,214,40,26,31,040,*77
$GPGSV,3,3,12,27,78,150,,31,26,099,29,40,20,257,,41,46,238,49*7C
$GLGSV,3,1,10,68,06,183,19,69,36,226,46,70,28,299,35,78,06,075,*60
$GLGSV,3,2,10,79,33,030,20,80,27,324,34,81,38,062,21,82,44,133,*6B
$GLGSV,3,3,10,83,13,175,,88,01,026,*6B
$GNRMC,094738.00,A,2241.51986,N,11417.54810,E,0.070,,241220,,,D*66
$GNGGA,094738.00,2241.51986,N,11417.54810,E,2,12,0.89,90.2,M,-1.7,M,,0000*6E
$GNGSA,A,3,04,08,09,22,03,16,41,31,,,,,1.81,0.89,1.58*1F
$GNGSA,A,3,69,70,80,81,,,,,,,,,1.81,0.89,1.58*10
$GPGSV,3,1,12,03,11,235,08,04,58,292,40,08,43,203,44,09,23,315,42*74
$GPGSV,3,2,12,16,51,004,19,18,04,061,,22,08,214,39,26,31,040,*79
$GPGSV,3,3,12,27,78,150,22,31,26,099,29,40,20,257,,41,46,238,49*7C
$GLGSV,3,2,10,79,33,030,20,80,27,324,34,81,38,062,23,82,44,133,*69
$GLGSV,3,3,10,83,13,175,,88,01,026,*6B
$GNRMC,094739.00,A,2241.51986,N,11417.54801,E,0.075,,241220,,,D*62
$GNGGA,094739.00,2241.51986,N,11417.54801,E,2,12,0.87,90.2,M,-1.7,M,,0000*61
$GPGSV,3,2,12,16,51,004,18,18,04,061,,22,08,214,39,26,31,040,*78
$GNRMC,094740.00,A,2241.51985,N,11417.54795,E,0.006,,241220,,,D*69
$GNGGA,094740.00,2241.51985,N,11417.54795,E,2,12,0.89,90.2,M,-1.7,M,,0000*60
$GNGSA,A,3,04,08,09,22,03,16,27,41,31,,,,1.81,0.89,1.58*1A
$GLGSV,3,2,10,79,33,030,22,80,27,324,34,81,38,062,24,82,44,133,*6C
$GLGSV,3,3,10,83,13,175,,88,01,026,*6B
$GPGSV,3,3,12,27,78,150,23,31,26,099,27,40,20,257,,41,46,238,49*73
$GLGSV,3,1,10,68,06,183,19,69,36,226,46,70,28,299,35,78,06,075,*60
$GLGSV,3,2,10,79,33,030,22,80,27,324,33,81,38,062,24,82,44,133,*6B
$GLGSV,3,3,10,83,13,175,,88,01,026,*6B
$GLGSV,3,2,10,79,33,030,23,80,27,324,32,81,38,062,23,82,44,133,*6C
$GLGSV,3,3,10,83,13,175,,88,01,026,*6B
$GNRMC,094744.00,A,2241.51982,N,11417.54766,E,0.006,,241220,,,D*66
$GNRMC,094745.00,A,2241.51982,N,11417.54750,E,0.062,,241220,,,D*60
$GNGGA,094747.00,2241.51978,N,11417.54704,E,2,12,0.89,90.4,M,-1.7,M,,0000*6B
$GNGSA,A,3,04,08,09,22,03,16,41,31,,,,,1.81,0.89,1.58*1F
$GPGSV,4,2,13,16,51,004,11,18,04,061,,21,03,185,,22,08,214,39*79
$GNRMC,094748.00,A,2241.51976,N,11417.54680,E,0.029,,241220,,,D*65
$GNGSA,A,3,04,08,09,22,03,16,41,31,,,,,1.81,0.89,1.58*1F
$GNGSA,A,3,69,70,80,81,,,,,,,,,1.81,0.89,1.58*10
$GPGSV,4,1,13,03,11,235,12,04,58,292,39,08,43,203,44,09,23,315,43*76
$GPGSV,4,2,13,16,51,004,11,18,04,061,,21,03,185,,22,08,214,39*79
$GNGGA,094749.00,2241.51973,N,11417.54652,E,2,12,0.95,90.6,M,-1.7,M,,0000*63
$GNGSA,A,3,04,08,09,22,03,16,41,31,,,,,1.92,0.95,1.67*1C
$GNGSA,A,3,69,70,80,81,,,,,,,,,1.92,0.95,1.67*13
$GPGSV,4,1,13,03,11,235,10,04,58,292,39,08,43,203,44,09,23,315,43*74
$GPGSV,4,2,13,16,51,004,10,18,04,061,,21,03,185,,22,08,214,39*78
$GPGSV,4,3,13,26,31,040,,27,78,150,,31,26,099,32,40,20,257,*71
$GPGSV,4,4,13,41,46,238,49*48
$GLGSV,3,1,10,68,06,183,18,69,36,226,46,70,28,299,35,78,06,076,*62
$GLGSV,3,2,10,79,33,031,18,80,28,325,33,81,37,061,20,82,44,133,*65
$GLGSV,3,3,10,83,13,175,,88,01,026,*6B
$GNRMC,094750.00,A,2241.51971,N,11417.54626,E,0.013,,241220,,,D*6E
$GNGGA,094750.00,2241.51971,N,11417.54626,E,2,12,0.89,90.8,M,-1.7,M,,0000*69
$GNGSA,A,3,04,08,09,22,03,16,41,31,,,,,1.81,0.89,1.58*1F
$GNGSA,A,3,69,70,80,81,,,,,,,,,1.81,0.89,1.58*10
$GPGSV,4,1,13,03,11,235,14,04,58,292,39,08,43,203,44,09,23,315,43*70
$GPGSV,4,2,13,16,51,004,10,18,04,061,,21,03,185,,22,08,214,39*78
$GPGSV,4,3,13,26,31,040,,27,78,150,,31,26,099,32,40,20,257,*71
$GPGSV,4,4,13,41,46,238,49*48
$GLGSV,3,1,10,68,06,183,18,69,36,226,46,70,28,299,35,78,06,076,*62
$GLGSV,3,2,10,79,33,031,16,80,28,325,33,81,37,061,17,82,44,133,*6F
$GLGSV,3,3,10,83,13,174,,88,01,026,*6A
$GNRMC,094751.00,A,2241.51969,N,11417.54605,E,0.013,,241220,,,D*67
$GNGGA,094751.00,2241.51969,N,11417.54605,E,2,12,0.89,90.8,M,-1.7,M,,0000*60
$GNGSA,A,3,04,08,09,22,03,16,41,31,,,,,1.81,0.89,1.58*1F
$GLGSV,3,1,10,68,06,183,17,69,36,226,47,70,28,299,36,78,06,076,*6F
$GLGSV,3,2,10,79,33,031,,80,28,325,33,81,37,061,18,82,44,133,*67
$GLGSV,3,3,10,83,13,174,,88,01,026,*6A
$GNGSA,A,3,04,08,09,22,03,16,41,31,,,,,1.69,0.87,1.45*1B
$GNGSA,A,3,69,70,80,81,,,,,,,,,1.69,0.87,1.45*14
$GPGSV,4,1,13,03,11,235,15,04,58,292,39,08,43,203,44,09,23,315,44*76
$GPGSV,4,2,13,16,51,004,08,18,04,061,,21,03,185,,22,08,214,38*70
$GPGSV,4,3,13,26,31,040,,27,78,150,,31,26,099,31,40,20,257,*72
$GPGSV,4,4,13,41,46,238,49*48
$GLGSV,3,1,10,68,06,183,17,69,36,226,47,70,28,299,36,78,06,076,*6F
$GLGSV,3,2,10,79,33,031,,80,28,325,34,81,37,061,19,82,44,133,*61
$GLGSV,3,3,10,83,13,174,,88,01,026,*6A
$GNRMC,094755.00,A,2241.51962,N,11417.54533,E,0.012,,241220,,,D*6F
$GNGGA,094755.00,2241.51962,N,11417.54533,E,2,12,0.91,91.2,M,-1.7,M,,0000*6B
$GNGSA,A,3,04,08,09,22,03,16,41,31,,,,,1.75,0.91,1.50*15
$GNGSA,A,3,69,70,80,81,,,,,,,,,1.75,0.91,1.50*1A
$GPGSV,4,1,13,03,11,235,19,04,58,292,39,08,43,203,44,09,23,315,44*7A
$GPGSV,4,2,13,16,51,004,10,18,04,061,,21,03,185,,22,08,214,38*79
$GNRMC,094801.00,A,2241.51960,N,11417.54470,E,0.012,,241220,,,D*65
$GNGGA,094801.00,2241.51960,N,11417.54470,E,2,11,0.95,91.4,M,-1.7,M,,0000*60
$GNGSA,A,3,04,08,09,22,03,41,31,,,,,,1.92,0.95,1.67*1B
$GNGSA,A,3,69,70,80,81,,,,,,,,,1.92,0.95,1.67*13
$GPGSV,4,1,13,03,11,235,22,04,58,291,39,08,43,203,44,09,23,315,44*71
$GPGSV,4,2,13,16,51,004,09,18,04,061,,21,03,185,,22,08,214,39*70
$GPGSV,4,3,13,26,31,040,,27,78,150,,31,26,099,31,40,20,257,*72
$GPGSV,4,4,13,41,46,238,49*48
$GLGSV,3,1,10,68,06,183,17,69,36,226,47,70,28,299,36,78,06,076,*6F
$GLGSV,3,2,10,79,33,031,,80,28,325,36,81,37,061,19,82,44,133,23*62
$GLGSV,3,3,10,83,13,174,,88,01,026,*6A
$GNGGA,094802.00,2241.51961,N,11417.54463,E,2,11,0.95,91.4,M,-1.7,M,,0000*60
$GNGGA,094803.00,2241.51961,N,11417.54457,E,2,11,0.95,91.4,M,-1.7,M,,0000*66
$GLGSV,3,1,10,68,06,183,18,69,36,226,47,70,28,299,35,78,06,076,*63
$GLGSV,3,2,10,79,33,031,,80,28,325,36,81,37,061,21,82,44,133,16*6F
$GLGSV,3,3,10,83,13,174,,88,01,026,*6A
$GNRMC,094805.00,A,2241.51963,N,11417.54455,E,0.010,,241220,,,D*67
$GNGGA,094805.00,2241.51963,N,11417.54455,E,2,11,0.95,91.4,M,-1.7,M,,0000*60
$GNGSA,A,3,04,08,09,22,03,41,31,,,,,,1.92,0.95,1.67*1B
$GNGSA,A,3,69,70,80,81,,,,,,,,,1.92,0.95,1.67*13
$GPGSV,4,2,13,16,51,004,09,18,04,061,,21,03,185,,22,08,214,39*70
$GPGSV,4,3,13,26,31,040,,27,78,150,,31,26,099,29,40,20,257,*7B
$GPGSV,4,4,13,41,46,238,49*48
$GLGSV,3,1,10,68,06,183,17,69,36,226,47,70,28,299,35,78,06,076,*6C
$GNRMC,094806.00,A,2241.51964,N,11417.54455,E,0.014,,241220,,,D*67
$GPGSV,4,1,13,03,11,235,25,04,58,291,39,08,43,204,44,09,23,315,44*71
$GPGSV,4,2,13,16,51,004,09,18,04,061,,21,03,185,,22,08,214,39*70
$GPGSV,4,3,13,26,31,040,,27,78,150,,31,26,099,28,40,20,257,*7A
$GPGSV,4,4,13,41,46,238,49*48
$GLGSV,3,1,10,68,06,183,17,69,36,226,47,70,28,299,35,78,06,076,*6C
$GLGSV,3,2,10,79,33,031,21,80,28,325,37,81,37,061,23,82,44,133,11*68
$GLGSV,3,3,10,83,13,174,,88,01,026,*6A
$GNRMC,094807.00,A,2241.51965,N,11417.54457,E,0.009,,241220,,,D*69
$GNGGA,094807.00,2241.51965,N,11417.54457,E,2,12,0.95,91.4,M,-1.7,M,,0000*65
$GNGSA,A,3,04,08,09,22,03,16,41,31,,,,,1.92,0.95,1.67*1C
$GNGSA,A,3,69,70,80,81,,,,,,,,,1.92,0.95,1.67*13
$GPGSV,4,1,13,03,11,235,25,04,58,291,39,08,43,204,44,09,23,315,44*71
$GPGSV,4,2,13,16,51,004,12,18,04,061,,21,03,185,,22,08,214,39*7A
$GPGSV,4,3,13,26,31,040,,27,78,150,,31,26,099,28,40,20,257,*7A
$GPGSV,4,4,13,41,46,238,49*48
$GLGSV,3,1,10,68,06,183,17,69,36,226,47,70,28,299,35,78,06,076,*6C
$GLGSV,3,2,10,79,33,031,22,80,28,325,36,81,37,061,23,82,44,133,09*63
$GNRMC,094808.00,A,2241.51966,N,11417.54458,E,0.011,,241220,,,D*63
$GNRMC,094812.00,A,2241.51970,N,11417.54458,E,0.013,,241220,,,D*6D
$GNRMC,094813.00,A,2241.51970,N,11417.54455,E,0.045,,241220,,,D*62
$GNRMC,094814.00,A,2241.51970,N,11417.54450,E,0.009,,241220,,,D*68
$GNGGA,094814.00,2241.51970,N,11417.54450,E,2,12,0.89,91.4,M,-1.7,M,,0000*69
$GNGSA,A,3,04,08,09,22,03,16,27,41,31,,,,1.81,0.89,1.57*15
$GNGSA,A,3,69,70,80,81,,,,,,,,,1.81,0.89,1.57*1F
$GPGSV,4,1,14,03,11,235,24,04,58,291,39,08,43,204,44,09,23,315,44*77
$GPGSV,4,2,14,11,,,15,16,50,005,14,18,04,061,,21,03,185,*4A
$GPGSV,4,3,14,22,07,214,41,26,31,040,,27,78,150,24,31,26,099,30*71
$GPGSV,4,4,14,40,20,257,,41,46,238,49*79
$GLGSV,3,1,10,68,06,183,10,69,36,226,46,70,28,299,36,78,06,076,*69
$GLGSV,3,2,10,79,33,031,22,80,28,325,38,81,37,061,23,82,44,133,20*66
$GLGSV,3,3,10,83,13,174,,88,01,026,*6A
$GNRMC,094815.00,A,2241.51969,N,11417.54442,E,0.059,,241220,,,D*67
$GPGSV,4,2,14,11,,,14,16,50,005,14,18,04,061,,21,03,185,*4B
$GPGSV,4,3,14,22,07,214,41,26,31,040,,27,78,150,,31,26,099,30*77
$GLGSV,3,2,10,79,33,031,22,80,28,325,38,81,37,061,24,82,44,133,19*6B
$GLGSV,3,3,10,83,13,174,,88,01,026,*6A
$GNGSA,A,3,04,08,09,22,03,16,41,31,,,,,1.92,0.95,1.67*1C
$GNGSA,A,3,69,70,80,81,,,,,,,,,1.92,0.95,1.67*13
$GNRMC,094818.00,A,2241.51966,N,11417.54417,E,0.033,,241220,,,D*69
$GNGGA,094818.00,2241.51966,N,11417.54417,E,2,12,0.87,91.9,M,-1.7,M,,0000*62
$GNGSA,A,3,04,08,09,22,03,16,41,31,,,,,1.69,0.87,1.45*1B
$GNGSA,A,3,69,70,80,81,,,,,,,,,1.69,0.87,1.45*14
$GPGSV,4,1,14,03,11,235,28,04,58,291,39,08,43,204,44,09,23,315,44*7B
$GPGSV,4,2,14,11,,,09,16,50,005,08,18,04,061,,21,03,185,*4A
$GPGSV,4,3,14,22,07,214,39,26,31,041,,27,78,150,,31,26,099,31*78
$GPGSV,4,4,14,40,20,257,,41,46,238,49*79
$GLGSV,3,1,10,68,06,183,,69,36,226,46,70,28,299,36,78,06,076,*68
$GLGSV,3,2,10,79,33,031,22,80,28,325,37,81,37,061,25,82,44,133,14*68
$GLGSV,3,3,10,83,13,174,,88,01,026,*6A
$GNRMC,094819.00,A,2241.51966,N,11417.54414,E,0.011,,241220,,,D*6B
$GLGSV,3,2,10,79,33,031,22,80,28,325,37,81,37,061,26,82,44,133,*6E
$GNRMC,094822.00,A,2241.51969,N,11417.54411,E,0.035,,241220,,,D*6F
$GNGGA,094822.00,2241.51969,N,11417.54411,E,2,11,0.91,92.3,M,-1.7,M,,0000*6F
$GNRMC,094826.00,A,2241.51991,N,11417.54482,E,1.236,,241220,,,D*66
$GNGGA,094826.00,2241.51991,N,11417.54482,E,2,12,0.87,92.4,M,-1.7,M,,0000*65
$GNGSA,A,3,04,08,09,22,03,16,41,31,,,,,1.68,0.87,1.44*1B
$GNGSA,A,3,69,70,80,81,,,,,,,,,1.68,0.87,1.44*14
$GPGSV,4,1,13,03,11,235,20,04,58,291,28,08,43,204,26,09,23,315,25*77
$GPGSV,4,2,13,16,50,005,11,18,04,061,,21,03,185,,22,07,214,24*7A
$GPGSV,4,3,13,26,31,041,,27,78,148,,31,26,100,22,40,20,257,*79
$GNGGA,094827.00,2241.51992,N,11417.54475,E,2,12,0.87,92.4,M,-1.7,M,,0000*6F
$GNGSA,A,3,04,08,09,22,03,16,41,31,,,,,1.68,0.87,1.44*1B
$GNGSA,A,3,69,70,80,81,,,,,,,,,1.68,0.87,1.44*14
$GPGSV,4,1,13,03,11,235,18,04,58,291,25,08,43,204,26,09,23,315,22*76
$GPGSV,4,2,13,16,50,005,11,18,04,061,,21,03,185,,22,07,214,35*7A
$GPGSV,4,3,13,26,31,041,,27,78,148,,31,26,100,20,40,20,257,*7B
$GPGSV,4,4,13,41,46,238,28*4F
$GLGSV,3,1,10,68,06,183,,69,36,226,25,70,28,299,22,78,06,076,*68
$GLGSV,3,2,10,79,33,031,16,80,28,325,19,81,37,061,18,82,44,133,15*6C
$GLGSV,3,3,10,83,13,174,,88,01,026,18*63
$GNRMC,094828.00,A,2241.51985,N,11417.54460,E,0.350,,241220,,,D*61
$GNGSA,A,3,69,70,80,81,,,,,,,,,1.68,0.87,1.44*14
$GPGSV,4,1,13,03,11,235,20,04,58,291,25,08,43,204,25,09,23,315,30*7D
$GNGGA,094829.00,2241.51987,N,11417.54447,E,2,12,1.77,92.5,M,-1.7,M,,0000*6B
$GNGSA,A,3,04,08,09,22,03,16,41,31,,,,,2.56,1.77,1.85*16
$GNGSA,A,3,69,70,80,81,,,,,,,,,2.56,1.77,1.85*19
$GPGSV,4,1,13,03,11,235,22,04,58,291,33,08,43,204,31,09,23,315,33*7E
$GPGSV,4,2,13,16,50,005,11,18,04,061,,21,03,185,,22,07,214,31*7E
$GPGSV,4,3,13,26,31,041,,27,78,148,,31,26,100,19,40,20,257,*71
$GPGSV,4,4,13,41,46,238,43*42
$GLGSV,3,1,10,68,06,183,,69,36,226,41,70,28,299,25,78,06,076,*6D
$GLGSV,3,2,10,79,33,031,,80,28,325,22,81,37,061,12,82,44,133,12*6E
$GLGSV,3,3,10,83,13,174,,88,01,026,16*6D
